{
  "type": "FeatureCollection",
  "features": [
    {
      "type": "Feature",
      "geometry": {
        "type": "Point",
        "coordinates": [
          2.356062,
          48.8317196
        ]
      },
      "properties": {
        "id": 361719,
        "nom": "Place d'Italie",
        "type": "transport",
        "reseau": "",
        "operateur": "",
        "ligne": "",
        "accessible": "unknown"
      }
    },
    {
      "type": "Feature",
      "geometry": {
        "type": "Point",
        "coordinates": [
          2.3049813,
          48.8874793
        ]
      },
      "properties": {
        "id": 367913,
        "nom": "Wagram - Pereire",
        "type": "transport",
        "reseau": "",
        "operateur": "",
        "ligne": "",
        "accessible": "unknown"
      }
    },
    {
      "type": "Feature",
      "geometry": {
        "type": "Point",
        "coordinates": [
          2.3785321,
          48.8961568
        ]
      },
      "properties": {
        "id": 17337815,
        "nom": "Rosa Parks - Curial",
        "type": "transport",
        "reseau": "",
        "operateur": "",
        "ligne": "",
        "accessible": "unknown"
      }
    },
    {
      "type": "Feature",
      "geometry": {
        "type": "Point",
        "coordinates": [
          2.3788526,
          48.89602
        ]
      },
      "properties": {
        "id": 17348329,
        "nom": "Rosa Parks - Curial",
        "type": "transport",
        "reseau": "",
        "operateur": "",
        "ligne": "",
        "accessible": "unknown"
      }
    },
    {
      "type": "Feature",
      "geometry": {
        "type": "Point",
        "coordinates": [
          2.3561904,
          48.8315824
        ]
      },
      "properties": {
        "id": 21648682,
        "nom": "Place d'Italie",
        "type": "transport",
        "reseau": "",
        "operateur": "",
        "ligne": "",
        "accessible": "unknown"
      }
    },
    {
      "type": "Feature",
      "geometry": {
        "type": "Point",
        "coordinates": [
          2.3305179,
          48.8924526
        ]
      },
      "properties": {
        "id": 24911715,
        "nom": "Coysevox",
        "type": "transport",
        "reseau": "RATP",
        "operateur": "RATP",
        "ligne": "",
        "accessible": "unknown"
      }
    },
    {
      "type": "Feature",
      "geometry": {
        "type": "Point",
        "coordinates": [
          2.3298324,
          48.8942128
        ]
      },
      "properties": {
        "id": 24912008,
        "nom": "Jacques Cartier",
        "type": "transport",
        "reseau": "RATP",
        "operateur": "RATP",
        "ligne": "",
        "accessible": "unknown"
      }
    },
    {
      "type": "Feature",
      "geometry": {
        "type": "Point",
        "coordinates": [
          2.3309166,
          48.8955854
        ]
      },
      "properties": {
        "id": 24912010,
        "nom": "Firmin Gemier",
        "type": "transport",
        "reseau": "RATP",
        "operateur": "RATP",
        "ligne": "",
        "accessible": "unknown"
      }
    },
    {
      "type": "Feature",
      "geometry": {
        "type": "Point",
        "coordinates": [
          2.3152622,
          48.8895077
        ]
      },
      "properties": {
        "id": 26721276,
        "nom": "Pont Cardinet",
        "type": "stop",
        "reseau": "RATP",
        "operateur": "RATP",
        "ligne": "",
        "accessible": "yes"
      }
    },
    {
      "type": "Feature",
      "geometry": {
        "type": "Point",
        "coordinates": [
          2.3737743,
          48.8446832
        ]
      },
      "properties": {
        "id": 26824135,
        "nom": "Gare de Lyon",
        "type": "station",
        "reseau": "TGV;Transilien",
        "operateur": "SNCF Gares & Connexions",
        "ligne": "",
        "accessible": "yes"
      }
    },
    {
      "type": "Feature",
      "geometry": {
        "type": "Point",
        "coordinates": [
          2.3031232,
          48.8906305
        ]
      },
      "properties": {
        "id": 27323304,
        "nom": "Marguerite Long",
        "type": "transport",
        "reseau": "",
        "operateur": "",
        "ligne": "",
        "accessible": "unknown"
      }
    },
    {
      "type": "Feature",
      "geometry": {
        "type": "Point",
        "coordinates": [
          2.3190158,
          48.8897315
        ]
      },
      "properties": {
        "id": 27323596,
        "nom": "Marché des Batignolles",
        "type": "transport",
        "reseau": "RATP",
        "operateur": "RATP",
        "ligne": "",
        "accessible": "unknown"
      }
    },
    {
      "type": "Feature",
      "geometry": {
        "type": "Point",
        "coordinates": [
          2.2825276,
          48.880214
        ]
      },
      "properties": {
        "id": 27336491,
        "nom": "Paris Porte Maillot",
        "type": "transport",
        "reseau": "",
        "operateur": "",
        "ligne": "",
        "accessible": "unknown"
      }
    },
    {
      "type": "Feature",
      "geometry": {
        "type": "Point",
        "coordinates": [
          2.2803457,
          48.8781499
        ]
      },
      "properties": {
        "id": 27336529,
        "nom": "Porte Maillot",
        "type": "transport",
        "reseau": "",
        "operateur": "",
        "ligne": "",
        "accessible": "unknown"
      }
    },
    {
      "type": "Feature",
      "geometry": {
        "type": "Point",
        "coordinates": [
          2.2906706,
          48.87515
        ]
      },
      "properties": {
        "id": 27362240,
        "nom": "Argentine",
        "type": "stop",
        "reseau": "Métro de Paris;RATP",
        "operateur": "RATP",
        "ligne": "2",
        "accessible": "unknown"
      }
    },
    {
      "type": "Feature",
      "geometry": {
        "type": "Point",
        "coordinates": [
          2.3004148,
          48.8720617
        ]
      },
      "properties": {
        "id": 27362249,
        "nom": "George V",
        "type": "stop",
        "reseau": "",
        "operateur": "",
        "ligne": "",
        "accessible": "unknown"
      }
    },
    {
      "type": "Feature",
      "geometry": {
        "type": "Point",
        "coordinates": [
          2.3099266,
          48.8690339
        ]
      },
      "properties": {
        "id": 27362251,
        "nom": "Franklin D. Roosevelt",
        "type": "station",
        "reseau": "",
        "operateur": "",
        "ligne": "",
        "accessible": "no"
      }
    },
    {
      "type": "Feature",
      "geometry": {
        "type": "Point",
        "coordinates": [
          2.3244166,
          48.8661988
        ]
      },
      "properties": {
        "id": 27362257,
        "nom": "Concorde",
        "type": "stop",
        "reseau": "",
        "operateur": "RATP",
        "ligne": "",
        "accessible": "no"
      }
    },
    {
      "type": "Feature",
      "geometry": {
        "type": "Point",
        "coordinates": [
          2.3296312,
          48.8645194
        ]
      },
      "properties": {
        "id": 27362258,
        "nom": "Tuileries",
        "type": "station",
        "reseau": "",
        "operateur": "",
        "ligne": "",
        "accessible": "no"
      }
    },
    {
      "type": "Feature",
      "geometry": {
        "type": "Point",
        "coordinates": [
          2.3411235,
          48.8608027
        ]
      },
      "properties": {
        "id": 27362260,
        "nom": "Louvre - Rivoli",
        "type": "stop",
        "reseau": "",
        "operateur": "",
        "ligne": "",
        "accessible": "no"
      }
    },
    {
      "type": "Feature",
      "geometry": {
        "type": "Point",
        "coordinates": [
          2.3474106,
          48.8587782
        ]
      },
      "properties": {
        "id": 27371862,
        "nom": "Châtelet",
        "type": "station",
        "reseau": "Métro de Paris",
        "operateur": "RATP",
        "ligne": "",
        "accessible": "no"
      }
    },
    {
      "type": "Feature",
      "geometry": {
        "type": "Point",
        "coordinates": [
          2.3604068,
          48.8553844
        ]
      },
      "properties": {
        "id": 27371867,
        "nom": "Saint-Paul",
        "type": "station",
        "reseau": "",
        "operateur": "",
        "ligne": "",
        "accessible": "no"
      }
    },
    {
      "type": "Feature",
      "geometry": {
        "type": "Point",
        "coordinates": [
          2.3686653,
          48.8519877
        ]
      },
      "properties": {
        "id": 27371876,
        "nom": "Bastille",
        "type": "stop",
        "reseau": "",
        "operateur": "",
        "ligne": "",
        "accessible": "unknown"
      }
    },
    {
      "type": "Feature",
      "geometry": {
        "type": "Point",
        "coordinates": [
          2.4080861,
          48.8473335
        ]
      },
      "properties": {
        "id": 27371900,
        "nom": "Porte de Vincennes",
        "type": "stop",
        "reseau": "",
        "operateur": "",
        "ligne": "",
        "accessible": "no"
      }
    },
    {
      "type": "Feature",
      "geometry": {
        "type": "Point",
        "coordinates": [
          2.2706419,
          48.8767117
        ]
      },
      "properties": {
        "id": 27373344,
        "nom": "Jardin d'Acclimatation",
        "type": "transport",
        "reseau": "",
        "operateur": "",
        "ligne": "",
        "accessible": "unknown"
      }
    },
    {
      "type": "Feature",
      "geometry": {
        "type": "Point",
        "coordinates": [
          2.3204906,
          48.8418782
        ]
      },
      "properties": {
        "id": 27681706,
        "nom": "Gare Montparnasse",
        "type": "transport",
        "reseau": "",
        "operateur": "",
        "ligne": "",
        "accessible": "unknown"
      }
    },
    {
      "type": "Feature",
      "geometry": {
        "type": "Point",
        "coordinates": [
          2.2754115,
          48.848958
        ]
      },
      "properties": {
        "id": 29414560,
        "nom": "Degas",
        "type": "bus",
        "reseau": "",
        "operateur": "",
        "ligne": "",
        "accessible": "no"
      }
    },
    {
      "type": "Feature",
      "geometry": {
        "type": "Point",
        "coordinates": [
          2.2954966,
          48.8629739
        ]
      },
      "properties": {
        "id": 29441475,
        "nom": "Musée d'Art Moderne - Palais de Tokyo",
        "type": "bus",
        "reseau": "",
        "operateur": "",
        "ligne": "",
        "accessible": "no"
      }
    },
    {
      "type": "Feature",
      "geometry": {
        "type": "Point",
        "coordinates": [
          2.2737091,
          48.8582029
        ]
      },
      "properties": {
        "id": 34818886,
        "nom": "La Muette - Boulainvilliers",
        "type": "transport",
        "reseau": "",
        "operateur": "",
        "ligne": "",
        "accessible": "unknown"
      }
    },
    {
      "type": "Feature",
      "geometry": {
        "type": "Point",
        "coordinates": [
          2.2981675,
          48.8491009
        ]
      },
      "properties": {
        "id": 34909170,
        "nom": "La Motte-Picquet - Grenelle",
        "type": "station",
        "reseau": "",
        "operateur": "",
        "ligne": "",
        "accessible": "limited"
      }
    },
    {
      "type": "Feature",
      "geometry": {
        "type": "Point",
        "coordinates": [
          2.3029457,
          48.8475232
        ]
      },
      "properties": {
        "id": 34909171,
        "nom": "Cambronne",
        "type": "station",
        "reseau": "",
        "operateur": "",
        "ligne": "",
        "accessible": "no"
      }
    },
    {
      "type": "Feature",
      "geometry": {
        "type": "Point",
        "coordinates": [
          2.2936611,
          48.8504095
        ]
      },
      "properties": {
        "id": 34909187,
        "nom": "Dupleix",
        "type": "station",
        "reseau": "",
        "operateur": "",
        "ligne": "",
        "accessible": "no"
      }
    },
    {
      "type": "Feature",
      "geometry": {
        "type": "Point",
        "coordinates": [
          2.3562621,
          48.8201903
        ]
      },
      "properties": {
        "id": 34909829,
        "nom": "Damesme",
        "type": "transport",
        "reseau": "",
        "operateur": "",
        "ligne": "",
        "accessible": "unknown"
      }
    },
    {
      "type": "Feature",
      "geometry": {
        "type": "Point",
        "coordinates": [
          2.3380402,
          48.8204837
        ]
      },
      "properties": {
        "id": 34910259,
        "nom": "Cité Universitaire",
        "type": "tram",
        "reseau": "RATP",
        "operateur": "RATP",
        "ligne": "",
        "accessible": "yes"
      }
    },
    {
      "type": "Feature",
      "geometry": {
        "type": "Point",
        "coordinates": [
          2.344585,
          48.8976855
        ]
      },
      "properties": {
        "id": 56497495,
        "nom": "Porte de Clignancourt",
        "type": "transport",
        "reseau": "",
        "operateur": "",
        "ligne": "",
        "accessible": "unknown"
      }
    },
    {
      "type": "Feature",
      "geometry": {
        "type": "Point",
        "coordinates": [
          2.3191085,
          48.8400624
        ]
      },
      "properties": {
        "id": 65331500,
        "nom": "Gare Montparnasse",
        "type": "station",
        "reseau": "Transilien",
        "operateur": "SNCF Gares & Connexions",
        "ligne": "",
        "accessible": "no"
      }
    },
    {
      "type": "Feature",
      "geometry": {
        "type": "Point",
        "coordinates": [
          2.3885648,
          48.8833089
        ]
      },
      "properties": {
        "id": 94117685,
        "nom": "D'Hautpoul",
        "type": "transport",
        "reseau": "",
        "operateur": "",
        "ligne": "",
        "accessible": "unknown"
      }
    },
    {
      "type": "Feature",
      "geometry": {
        "type": "Point",
        "coordinates": [
          2.380326,
          48.8762056
        ]
      },
      "properties": {
        "id": 94128165,
        "nom": "Botzaris - Buttes Chaumont",
        "type": "transport",
        "reseau": "",
        "operateur": "",
        "ligne": "",
        "accessible": "unknown"
      }
    },
    {
      "type": "Feature",
      "geometry": {
        "type": "Point",
        "coordinates": [
          2.389852,
          48.8735107
        ]
      },
      "properties": {
        "id": 94130190,
        "nom": "Jourdain",
        "type": "transport",
        "reseau": "",
        "operateur": "",
        "ligne": "",
        "accessible": "unknown"
      }
    },
    {
      "type": "Feature",
      "geometry": {
        "type": "Point",
        "coordinates": [
          2.376209,
          48.8763535
        ]
      },
      "properties": {
        "id": 94196274,
        "nom": "Atlas",
        "type": "transport",
        "reseau": "",
        "operateur": "",
        "ligne": "",
        "accessible": "unknown"
      }
    },
    {
      "type": "Feature",
      "geometry": {
        "type": "Point",
        "coordinates": [
          2.3383916,
          48.8884022
        ]
      },
      "properties": {
        "id": 94225829,
        "nom": "Abreuvoir - Girardon",
        "type": "transport",
        "reseau": "",
        "operateur": "",
        "ligne": "",
        "accessible": "unknown"
      }
    },
    {
      "type": "Feature",
      "geometry": {
        "type": "Point",
        "coordinates": [
          2.3948978,
          48.8758789
        ]
      },
      "properties": {
        "id": 96136750,
        "nom": "Pixérécourt",
        "type": "transport",
        "reseau": "",
        "operateur": "",
        "ligne": "",
        "accessible": "unknown"
      }
    },
    {
      "type": "Feature",
      "geometry": {
        "type": "Point",
        "coordinates": [
          2.2727833,
          48.839746
        ]
      },
      "properties": {
        "id": 116136728,
        "nom": "Hôpital Européen Georges Pompidou",
        "type": "transport",
        "reseau": "",
        "operateur": "",
        "ligne": "",
        "accessible": "unknown"
      }
    },
    {
      "type": "Feature",
      "geometry": {
        "type": "Point",
        "coordinates": [
          2.3220688,
          48.8295614
        ]
      },
      "properties": {
        "id": 125272923,
        "nom": "Les Plantes",
        "type": "bus",
        "reseau": "",
        "operateur": "",
        "ligne": "",
        "accessible": "unknown"
      }
    },
    {
      "type": "Feature",
      "geometry": {
        "type": "Point",
        "coordinates": [
          2.3230781,
          48.8290722
        ]
      },
      "properties": {
        "id": 125273053,
        "nom": "Les Plantes",
        "type": "bus",
        "reseau": "",
        "operateur": "",
        "ligne": "",
        "accessible": "yes"
      }
    },
    {
      "type": "Feature",
      "geometry": {
        "type": "Point",
        "coordinates": [
          2.2879898,
          48.8324292
        ]
      },
      "properties": {
        "id": 134305192,
        "nom": "Porte de Versailles",
        "type": "stop",
        "reseau": "",
        "operateur": "",
        "ligne": "",
        "accessible": "no"
      }
    },
    {
      "type": "Feature",
      "geometry": {
        "type": "Point",
        "coordinates": [
          2.2966539,
          48.8372872
        ]
      },
      "properties": {
        "id": 134305198,
        "nom": "Convention",
        "type": "station",
        "reseau": "",
        "operateur": "",
        "ligne": "",
        "accessible": "no"
      }
    },
    {
      "type": "Feature",
      "geometry": {
        "type": "Point",
        "coordinates": [
          2.2565649,
          48.8376671
        ]
      },
      "properties": {
        "id": 134600658,
        "nom": "Porte de Saint-Cloud",
        "type": "transport",
        "reseau": "",
        "operateur": "",
        "ligne": "",
        "accessible": "unknown"
      }
    },
    {
      "type": "Feature",
      "geometry": {
        "type": "Point",
        "coordinates": [
          2.2734188,
          48.828465
        ]
      },
      "properties": {
        "id": 141591339,
        "nom": "Frères Voisin",
        "type": "transport",
        "reseau": "",
        "operateur": "",
        "ligne": "",
        "accessible": "unknown"
      }
    },
    {
      "type": "Feature",
      "geometry": {
        "type": "Point",
        "coordinates": [
          2.2888523,
          48.8587065
        ]
      },
      "properties": {
        "id": 146724405,
        "nom": "Le Nôtre",
        "type": "transport",
        "reseau": "",
        "operateur": "",
        "ligne": "",
        "accessible": "unknown"
      }
    },
    {
      "type": "Feature",
      "geometry": {
        "type": "Point",
        "coordinates": [
          2.3138373,
          48.8628261
        ]
      },
      "properties": {
        "id": 154788912,
        "nom": "Invalides",
        "type": "station",
        "reseau": "RER",
        "operateur": "SNCF Gares & Connexions",
        "ligne": "",
        "accessible": "yes"
      }
    },
    {
      "type": "Feature",
      "geometry": {
        "type": "Point",
        "coordinates": [
          2.2898279,
          48.8568885
        ]
      },
      "properties": {
        "id": 154788920,
        "nom": "Champ de Mars - Tour Eiffel",
        "type": "stop",
        "reseau": "",
        "operateur": "SNCF Gares & Connexions",
        "ligne": "RER C",
        "accessible": "limited"
      }
    },
    {
      "type": "Feature",
      "geometry": {
        "type": "Point",
        "coordinates": [
          2.4120974,
          48.841114
        ]
      },
      "properties": {
        "id": 177308962,
        "nom": "Porte de Montempoivre",
        "type": "transport",
        "reseau": "",
        "operateur": "",
        "ligne": "",
        "accessible": "unknown"
      }
    },
    {
      "type": "Feature",
      "geometry": {
        "type": "Point",
        "coordinates": [
          2.2856493,
          48.8576538
        ]
      },
      "properties": {
        "id": 185858362,
        "nom": "Passy",
        "type": "stop",
        "reseau": "",
        "operateur": "",
        "ligne": "",
        "accessible": "unknown"
      }
    },
    {
      "type": "Feature",
      "geometry": {
        "type": "Point",
        "coordinates": [
          2.3010097,
          48.8623631
        ]
      },
      "properties": {
        "id": 185883228,
        "nom": "Bosquet - Rapp",
        "type": "transport",
        "reseau": "",
        "operateur": "",
        "ligne": "",
        "accessible": "unknown"
      }
    },
    {
      "type": "Feature",
      "geometry": {
        "type": "Point",
        "coordinates": [
          2.3256075,
          48.8236307
        ]
      },
      "properties": {
        "id": 220289379,
        "nom": "Porte d'Orléans",
        "type": "station",
        "reseau": "",
        "operateur": "RATP",
        "ligne": "",
        "accessible": "yes"
      }
    },
    {
      "type": "Feature",
      "geometry": {
        "type": "Point",
        "coordinates": [
          2.3270406,
          48.8280318
        ]
      },
      "properties": {
        "id": 220289382,
        "nom": "Alésia",
        "type": "station",
        "reseau": "",
        "operateur": "RATP",
        "ligne": "",
        "accessible": "no"
      }
    },
    {
      "type": "Feature",
      "geometry": {
        "type": "Point",
        "coordinates": [
          2.3298657,
          48.8312786
        ]
      },
      "properties": {
        "id": 220289385,
        "nom": "Mouton-Duvernet",
        "type": "station",
        "reseau": "",
        "operateur": "RATP",
        "ligne": "",
        "accessible": "no"
      }
    },
    {
      "type": "Feature",
      "geometry": {
        "type": "Point",
        "coordinates": [
          2.312154,
          48.8472331
        ]
      },
      "properties": {
        "id": 230346442,
        "nom": "Sans nom",
        "type": "transport",
        "reseau": "",
        "operateur": "",
        "ligne": "",
        "accessible": "unknown"
      }
    },
    {
      "type": "Feature",
      "geometry": {
        "type": "Point",
        "coordinates": [
          2.3111951,
          48.8470811
        ]
      },
      "properties": {
        "id": 230346587,
        "nom": "Sans nom",
        "type": "transport",
        "reseau": "",
        "operateur": "",
        "ligne": "",
        "accessible": "unknown"
      }
    },
    {
      "type": "Feature",
      "geometry": {
        "type": "Point",
        "coordinates": [
          2.3368199,
          48.8329806
        ]
      },
      "properties": {
        "id": 235369898,
        "nom": "Saint-Jacques",
        "type": "station",
        "reseau": "",
        "operateur": "",
        "ligne": "",
        "accessible": "no"
      }
    },
    {
      "type": "Feature",
      "geometry": {
        "type": "Point",
        "coordinates": [
          2.3434916,
          48.8311451
        ]
      },
      "properties": {
        "id": 235370184,
        "nom": "Glacière",
        "type": "station",
        "reseau": "",
        "operateur": "",
        "ligne": "",
        "accessible": "no"
      }
    },
    {
      "type": "Feature",
      "geometry": {
        "type": "Point",
        "coordinates": [
          2.350489,
          48.8297902
        ]
      },
      "properties": {
        "id": 235370505,
        "nom": "Corvisart",
        "type": "stop",
        "reseau": "",
        "operateur": "",
        "ligne": "",
        "accessible": "unknown"
      }
    },
    {
      "type": "Feature",
      "geometry": {
        "type": "Point",
        "coordinates": [
          2.3558932,
          48.8309446
        ]
      },
      "properties": {
        "id": 235371392,
        "nom": "Place d'Italie",
        "type": "station",
        "reseau": "",
        "operateur": "",
        "ligne": "",
        "accessible": "no"
      }
    },
    {
      "type": "Feature",
      "geometry": {
        "type": "Point",
        "coordinates": [
          2.3628272,
          48.8331995
        ]
      },
      "properties": {
        "id": 235371394,
        "nom": "Nationale",
        "type": "station",
        "reseau": "",
        "operateur": "",
        "ligne": "",
        "accessible": "no"
      }
    },
    {
      "type": "Feature",
      "geometry": {
        "type": "Point",
        "coordinates": [
          2.3681023,
          48.83495
        ]
      },
      "properties": {
        "id": 235371395,
        "nom": "Chevaleret",
        "type": "station",
        "reseau": "",
        "operateur": "",
        "ligne": "",
        "accessible": "no"
      }
    },
    {
      "type": "Feature",
      "geometry": {
        "type": "Point",
        "coordinates": [
          2.3728619,
          48.8370444
        ]
      },
      "properties": {
        "id": 235374383,
        "nom": "Quai de la Gare",
        "type": "station",
        "reseau": "",
        "operateur": "",
        "ligne": "",
        "accessible": "no"
      }
    },
    {
      "type": "Feature",
      "geometry": {
        "type": "Point",
        "coordinates": [
          2.3670741,
          48.8842416
        ]
      },
      "properties": {
        "id": 235377792,
        "nom": "Stalingrad",
        "type": "station",
        "reseau": "",
        "operateur": "",
        "ligne": "",
        "accessible": "yes"
      }
    },
    {
      "type": "Feature",
      "geometry": {
        "type": "Point",
        "coordinates": [
          2.2954938,
          48.8630004
        ]
      },
      "properties": {
        "id": 241885962,
        "nom": "Musée d'Art Moderne – Palais de Tokyo",
        "type": "transport",
        "reseau": "",
        "operateur": "",
        "ligne": "",
        "accessible": "unknown"
      }
    },
    {
      "type": "Feature",
      "geometry": {
        "type": "Point",
        "coordinates": [
          2.3955176,
          48.8476792
        ]
      },
      "properties": {
        "id": 241928557,
        "nom": "Nation",
        "type": "station",
        "reseau": "",
        "operateur": "",
        "ligne": "",
        "accessible": "no"
      }
    },
    {
      "type": "Feature",
      "geometry": {
        "type": "Point",
        "coordinates": [
          2.3812008,
          48.8783961
        ]
      },
      "properties": {
        "id": 243357000,
        "nom": "Buttes Chaumont",
        "type": "station",
        "reseau": "",
        "operateur": "",
        "ligne": "",
        "accessible": "no"
      }
    },
    {
      "type": "Feature",
      "geometry": {
        "type": "Point",
        "coordinates": [
          2.3739077,
          48.8809263
        ]
      },
      "properties": {
        "id": 243358029,
        "nom": "Bolivar",
        "type": "station",
        "reseau": "",
        "operateur": "",
        "ligne": "",
        "accessible": "unknown"
      }
    },
    {
      "type": "Feature",
      "geometry": {
        "type": "Point",
        "coordinates": [
          2.4013274,
          48.8518248
        ]
      },
      "properties": {
        "id": 243486950,
        "nom": "Buzenval",
        "type": "station",
        "reseau": "",
        "operateur": "",
        "ligne": "",
        "accessible": "no"
      }
    },
    {
      "type": "Feature",
      "geometry": {
        "type": "Point",
        "coordinates": [
          2.3833739,
          48.8667079
        ]
      },
      "properties": {
        "id": 243490761,
        "nom": "Ménilmontant",
        "type": "stop",
        "reseau": "",
        "operateur": "",
        "ligne": "",
        "accessible": "no"
      }
    },
    {
      "type": "Feature",
      "geometry": {
        "type": "Point",
        "coordinates": [
          2.3874128,
          48.8629238
        ]
      },
      "properties": {
        "id": 243490762,
        "nom": "Père Lachaise",
        "type": "station",
        "reseau": "",
        "operateur": "",
        "ligne": "",
        "accessible": "unknown"
      }
    },
    {
      "type": "Feature",
      "geometry": {
        "type": "Point",
        "coordinates": [
          2.3901666,
          48.8582563
        ]
      },
      "properties": {
        "id": 243490763,
        "nom": "Philippe Auguste",
        "type": "stop",
        "reseau": "",
        "operateur": "",
        "ligne": "",
        "accessible": "unknown"
      }
    },
    {
      "type": "Feature",
      "geometry": {
        "type": "Point",
        "coordinates": [
          2.3944352,
          48.85634
        ]
      },
      "properties": {
        "id": 243490764,
        "nom": "Alexandre Dumas",
        "type": "station",
        "reseau": "",
        "operateur": "",
        "ligne": "",
        "accessible": "no"
      }
    },
    {
      "type": "Feature",
      "geometry": {
        "type": "Point",
        "coordinates": [
          2.3768798,
          48.872035
        ]
      },
      "properties": {
        "id": 243493845,
        "nom": "Belleville",
        "type": "station",
        "reseau": "",
        "operateur": "",
        "ligne": "",
        "accessible": "no"
      }
    },
    {
      "type": "Feature",
      "geometry": {
        "type": "Point",
        "coordinates": [
          2.3804698,
          48.869062
        ]
      },
      "properties": {
        "id": 243493846,
        "nom": "Couronnes",
        "type": "stop",
        "reseau": "",
        "operateur": "",
        "ligne": "",
        "accessible": "no"
      }
    },
    {
      "type": "Feature",
      "geometry": {
        "type": "Point",
        "coordinates": [
          2.3710197,
          48.8774215
        ]
      },
      "properties": {
        "id": 243493916,
        "nom": "Colonel Fabien",
        "type": "stop",
        "reseau": "",
        "operateur": "",
        "ligne": "",
        "accessible": "no"
      }
    },
    {
      "type": "Feature",
      "geometry": {
        "type": "Point",
        "coordinates": [
          2.3710498,
          48.8821884
        ]
      },
      "properties": {
        "id": 243494334,
        "nom": "Jaurès",
        "type": "stop",
        "reseau": "",
        "operateur": "",
        "ligne": "",
        "accessible": "unknown"
      }
    },
    {
      "type": "Feature",
      "geometry": {
        "type": "Point",
        "coordinates": [
          2.3446121,
          48.8829736
        ]
      },
      "properties": {
        "id": 243494998,
        "nom": "Anvers",
        "type": "stop",
        "reseau": "",
        "operateur": "",
        "ligne": "",
        "accessible": "unknown"
      }
    },
    {
      "type": "Feature",
      "geometry": {
        "type": "Point",
        "coordinates": [
          2.3335853,
          48.8835274
        ]
      },
      "properties": {
        "id": 243496025,
        "nom": "Blanche",
        "type": "station",
        "reseau": "",
        "operateur": "",
        "ligne": "",
        "accessible": "no"
      }
    },
    {
      "type": "Feature",
      "geometry": {
        "type": "Point",
        "coordinates": [
          2.3272899,
          48.8834776
        ]
      },
      "properties": {
        "id": 243496027,
        "nom": "Place de Clichy",
        "type": "station",
        "reseau": "",
        "operateur": "",
        "ligne": "",
        "accessible": "no"
      }
    },
    {
      "type": "Feature",
      "geometry": {
        "type": "Point",
        "coordinates": [
          2.3213298,
          48.8823012
        ]
      },
      "properties": {
        "id": 243496028,
        "nom": "Rome",
        "type": "station",
        "reseau": "",
        "operateur": "",
        "ligne": "",
        "accessible": "no"
      }
    },
    {
      "type": "Feature",
      "geometry": {
        "type": "Point",
        "coordinates": [
          2.3149118,
          48.8811181
        ]
      },
      "properties": {
        "id": 243496029,
        "nom": "Villiers",
        "type": "station",
        "reseau": "",
        "operateur": "",
        "ligne": "",
        "accessible": "no"
      }
    },
    {
      "type": "Feature",
      "geometry": {
        "type": "Point",
        "coordinates": [
          2.3086415,
          48.8803157
        ]
      },
      "properties": {
        "id": 243496030,
        "nom": "Monceau",
        "type": "station",
        "reseau": "",
        "operateur": "",
        "ligne": "",
        "accessible": "no"
      }
    },
    {
      "type": "Feature",
      "geometry": {
        "type": "Point",
        "coordinates": [
          2.2773184,
          48.871598
        ]
      },
      "properties": {
        "id": 243496729,
        "nom": "Porte Dauphine",
        "type": "station",
        "reseau": "",
        "operateur": "",
        "ligne": "",
        "accessible": "no"
      }
    },
    {
      "type": "Feature",
      "geometry": {
        "type": "Point",
        "coordinates": [
          2.3978212,
          48.864941
        ]
      },
      "properties": {
        "id": 243507235,
        "nom": "Gambetta",
        "type": "stop",
        "reseau": "",
        "operateur": "",
        "ligne": "",
        "accessible": "unknown"
      }
    },
    {
      "type": "Feature",
      "geometry": {
        "type": "Point",
        "coordinates": [
          2.3794817,
          48.864335
        ]
      },
      "properties": {
        "id": 243507789,
        "nom": "Rue Saint-Maur",
        "type": "station",
        "reseau": "",
        "operateur": "",
        "ligne": "",
        "accessible": "no"
      }
    },
    {
      "type": "Feature",
      "geometry": {
        "type": "Point",
        "coordinates": [
          2.3739035,
          48.8653571
        ]
      },
      "properties": {
        "id": 243507790,
        "nom": "Parmentier",
        "type": "station",
        "reseau": "",
        "operateur": "",
        "ligne": "",
        "accessible": "no"
      }
    },
    {
      "type": "Feature",
      "geometry": {
        "type": "Point",
        "coordinates": [
          2.3561116,
          48.8654718
        ]
      },
      "properties": {
        "id": 243507793,
        "nom": "Arts et Métiers",
        "type": "station",
        "reseau": "",
        "operateur": "RATP",
        "ligne": "",
        "accessible": "no"
      }
    },
    {
      "type": "Feature",
      "geometry": {
        "type": "Point",
        "coordinates": [
          2.3414383,
          48.8686539
        ]
      },
      "properties": {
        "id": 243510334,
        "nom": "Bourse",
        "type": "station",
        "reseau": "",
        "operateur": "",
        "ligne": "",
        "accessible": "no"
      }
    },
    {
      "type": "Feature",
      "geometry": {
        "type": "Point",
        "coordinates": [
          2.3358665,
          48.8695929
        ]
      },
      "properties": {
        "id": 243510335,
        "nom": "Quatre Septembre",
        "type": "station",
        "reseau": "",
        "operateur": "",
        "ligne": "",
        "accessible": "no"
      }
    },
    {
      "type": "Feature",
      "geometry": {
        "type": "Point",
        "coordinates": [
          2.33233,
          48.8706446
        ]
      },
      "properties": {
        "id": 243510336,
        "nom": "Opéra",
        "type": "station",
        "reseau": "",
        "operateur": "",
        "ligne": "",
        "accessible": "no"
      }
    },
    {
      "type": "Feature",
      "geometry": {
        "type": "Point",
        "coordinates": [
          2.3274302,
          48.8737533
        ]
      },
      "properties": {
        "id": 243510337,
        "nom": "Havre - Caumartin",
        "type": "station",
        "reseau": "Métro de Paris",
        "operateur": "RATP",
        "ligne": "",
        "accessible": "no"
      }
    },
    {
      "type": "Feature",
      "geometry": {
        "type": "Point",
        "coordinates": [
          2.3241006,
          48.8756142
        ]
      },
      "properties": {
        "id": 243510338,
        "nom": "Saint-Lazare",
        "type": "stop",
        "reseau": "Métro de Paris;RATP",
        "operateur": "RATP",
        "ligne": "",
        "accessible": "yes"
      }
    },
    {
      "type": "Feature",
      "geometry": {
        "type": "Point",
        "coordinates": [
          2.3089995,
          48.8829752
        ]
      },
      "properties": {
        "id": 243510678,
        "nom": "Malesherbes",
        "type": "station",
        "reseau": "",
        "operateur": "",
        "ligne": "",
        "accessible": "no"
      }
    },
    {
      "type": "Feature",
      "geometry": {
        "type": "Point",
        "coordinates": [
          2.3037389,
          48.8840526
        ]
      },
      "properties": {
        "id": 243510679,
        "nom": "Wagram",
        "type": "station",
        "reseau": "",
        "operateur": "",
        "ligne": "",
        "accessible": "no"
      }
    },
    {
      "type": "Feature",
      "geometry": {
        "type": "Point",
        "coordinates": [
          2.2983109,
          48.8847906
        ]
      },
      "properties": {
        "id": 243510680,
        "nom": "Pereire",
        "type": "station",
        "reseau": "",
        "operateur": "",
        "ligne": "",
        "accessible": "no"
      }
    },
    {
      "type": "Feature",
      "geometry": {
        "type": "Point",
        "coordinates": [
          2.2931032,
          48.8858342
        ]
      },
      "properties": {
        "id": 243510681,
        "nom": "Porte de Champerret",
        "type": "station",
        "reseau": "",
        "operateur": "",
        "ligne": "",
        "accessible": "no"
      }
    },
    {
      "type": "Feature",
      "geometry": {
        "type": "Point",
        "coordinates": [
          2.3012795,
          48.839587
        ]
      },
      "properties": {
        "id": 244494486,
        "nom": "Vaugirard",
        "type": "station",
        "reseau": "",
        "operateur": "",
        "ligne": "",
        "accessible": "no"
      }
    },
    {
      "type": "Feature",
      "geometry": {
        "type": "Point",
        "coordinates": [
          2.3080102,
          48.8415334
        ]
      },
      "properties": {
        "id": 244494489,
        "nom": "Volontaires",
        "type": "station",
        "reseau": "",
        "operateur": "",
        "ligne": "",
        "accessible": "no"
      }
    },
    {
      "type": "Feature",
      "geometry": {
        "type": "Point",
        "coordinates": [
          2.317965,
          48.8444916
        ]
      },
      "properties": {
        "id": 244494496,
        "nom": "Falguière",
        "type": "station",
        "reseau": "",
        "operateur": "RATP",
        "ligne": "",
        "accessible": "no"
      }
    },
    {
      "type": "Feature",
      "geometry": {
        "type": "Point",
        "coordinates": [
          2.3549171,
          48.8314571
        ]
      },
      "properties": {
        "id": 245226092,
        "nom": "Place d'Italie",
        "type": "transport",
        "reseau": "",
        "operateur": "",
        "ligne": "",
        "accessible": "unknown"
      }
    },
    {
      "type": "Feature",
      "geometry": {
        "type": "Point",
        "coordinates": [
          2.3166286,
          48.8468433
        ]
      },
      "properties": {
        "id": 245250755,
        "nom": "Duroc",
        "type": "station",
        "reseau": "",
        "operateur": "",
        "ligne": "",
        "accessible": "no"
      }
    },
    {
      "type": "Feature",
      "geometry": {
        "type": "Point",
        "coordinates": [
          2.3144012,
          48.851398
        ]
      },
      "properties": {
        "id": 245250758,
        "nom": "Saint-François-Xavier",
        "type": "stop",
        "reseau": "",
        "operateur": "",
        "ligne": "",
        "accessible": "unknown"
      }
    },
    {
      "type": "Feature",
      "geometry": {
        "type": "Point",
        "coordinates": [
          2.3149112,
          48.8558895
        ]
      },
      "properties": {
        "id": 245250759,
        "nom": "Varenne",
        "type": "stop",
        "reseau": "",
        "operateur": "",
        "ligne": "",
        "accessible": "unknown"
      }
    },
    {
      "type": "Feature",
      "geometry": {
        "type": "Point",
        "coordinates": [
          2.4009129,
          48.8413382
        ]
      },
      "properties": {
        "id": 245455187,
        "nom": "Bel-Air",
        "type": "station",
        "reseau": "",
        "operateur": "",
        "ligne": "",
        "accessible": "no"
      }
    },
    {
      "type": "Feature",
      "geometry": {
        "type": "Point",
        "coordinates": [
          2.4039394,
          48.8813555
        ]
      },
      "properties": {
        "id": 248581962,
        "nom": "Les Marronniers",
        "type": "transport",
        "reseau": "",
        "operateur": "",
        "ligne": "",
        "accessible": "unknown"
      }
    },
    {
      "type": "Feature",
      "geometry": {
        "type": "Point",
        "coordinates": [
          2.3599967,
          48.8905061
        ]
      },
      "properties": {
        "id": 249335596,
        "nom": "Marx Dormoy",
        "type": "station",
        "reseau": "",
        "operateur": "",
        "ligne": "",
        "accessible": "no"
      }
    },
    {
      "type": "Feature",
      "geometry": {
        "type": "Point",
        "coordinates": [
          2.3013478,
          48.8395162
        ]
      },
      "properties": {
        "id": 250656805,
        "nom": "Rue d'Alleray",
        "type": "metro",
        "reseau": "",
        "operateur": "",
        "ligne": "2",
        "accessible": "no"
      }
    },
    {
      "type": "Feature",
      "geometry": {
        "type": "Point",
        "coordinates": [
          2.3607546,
          48.8711191
        ]
      },
      "properties": {
        "id": 251387813,
        "nom": "Jacques Bonsergent",
        "type": "station",
        "reseau": "",
        "operateur": "",
        "ligne": "",
        "accessible": "yes"
      }
    },
    {
      "type": "Feature",
      "geometry": {
        "type": "Point",
        "coordinates": [
          2.3028026,
          48.8423298
        ]
      },
      "properties": {
        "id": 256324752,
        "nom": "Cambronne - Lecourbe",
        "type": "bus",
        "reseau": "",
        "operateur": "",
        "ligne": "",
        "accessible": "unknown"
      }
    },
    {
      "type": "Feature",
      "geometry": {
        "type": "Point",
        "coordinates": [
          2.3040665,
          48.8407918
        ]
      },
      "properties": {
        "id": 256324811,
        "nom": "Cambronne - Vaugirard",
        "type": "bus",
        "reseau": "",
        "operateur": "",
        "ligne": "",
        "accessible": "no"
      }
    },
    {
      "type": "Feature",
      "geometry": {
        "type": "Point",
        "coordinates": [
          2.4061303,
          48.8527267
        ]
      },
      "properties": {
        "id": 256441194,
        "nom": "Maraîchers",
        "type": "station",
        "reseau": "",
        "operateur": "",
        "ligne": "",
        "accessible": "no"
      }
    },
    {
      "type": "Feature",
      "geometry": {
        "type": "Point",
        "coordinates": [
          2.4060382,
          48.8525631
        ]
      },
      "properties": {
        "id": 256441196,
        "nom": "Rue d'Avron",
        "type": "metro",
        "reseau": "",
        "operateur": "",
        "ligne": "3",
        "accessible": "no"
      }
    },
    {
      "type": "Feature",
      "geometry": {
        "type": "Point",
        "coordinates": [
          2.4062242,
          48.8525894
        ]
      },
      "properties": {
        "id": 256441197,
        "nom": "Rue des Maraichers",
        "type": "metro",
        "reseau": "",
        "operateur": "",
        "ligne": "2",
        "accessible": "no"
      }
    },
    {
      "type": "Feature",
      "geometry": {
        "type": "Point",
        "coordinates": [
          2.4059528,
          48.8529115
        ]
      },
      "properties": {
        "id": 256441199,
        "nom": "Rue des Pyrénées",
        "type": "metro",
        "reseau": "",
        "operateur": "",
        "ligne": "1",
        "accessible": "no"
      }
    },
    {
      "type": "Feature",
      "geometry": {
        "type": "Point",
        "coordinates": [
          2.4104239,
          48.8536538
        ]
      },
      "properties": {
        "id": 256442277,
        "nom": "Rue d'Avron",
        "type": "metro",
        "reseau": "",
        "operateur": "",
        "ligne": "3",
        "accessible": "unknown"
      }
    },
    {
      "type": "Feature",
      "geometry": {
        "type": "Point",
        "coordinates": [
          2.4104784,
          48.8533106
        ]
      },
      "properties": {
        "id": 256442278,
        "nom": "Rue du Volga",
        "type": "metro",
        "reseau": "",
        "operateur": "",
        "ligne": "4",
        "accessible": "no"
      }
    },
    {
      "type": "Feature",
      "geometry": {
        "type": "Point",
        "coordinates": [
          2.4112545,
          48.8534967
        ]
      },
      "properties": {
        "id": 256442279,
        "nom": "Avenue de la Porte de Montreuil",
        "type": "metro",
        "reseau": "",
        "operateur": "",
        "ligne": "1",
        "accessible": "no"
      }
    },
    {
      "type": "Feature",
      "geometry": {
        "type": "Point",
        "coordinates": [
          2.3887914,
          48.8525808
        ]
      },
      "properties": {
        "id": 256443205,
        "nom": "Rue des Boulets",
        "type": "station",
        "reseau": "",
        "operateur": "",
        "ligne": "",
        "accessible": "no"
      }
    },
    {
      "type": "Feature",
      "geometry": {
        "type": "Point",
        "coordinates": [
          2.3892699,
          48.8522271
        ]
      },
      "properties": {
        "id": 256443206,
        "nom": "Rue des Boulets",
        "type": "metro",
        "reseau": "",
        "operateur": "",
        "ligne": "2",
        "accessible": "no"
      }
    },
    {
      "type": "Feature",
      "geometry": {
        "type": "Point",
        "coordinates": [
          2.3894805,
          48.8523369
        ]
      },
      "properties": {
        "id": 256443210,
        "nom": "Cité Voltaire",
        "type": "metro",
        "reseau": "",
        "operateur": "",
        "ligne": "1",
        "accessible": "no"
      }
    },
    {
      "type": "Feature",
      "geometry": {
        "type": "Point",
        "coordinates": [
          2.3853043,
          48.8547411
        ]
      },
      "properties": {
        "id": 256443438,
        "nom": "Charonne",
        "type": "station",
        "reseau": "",
        "operateur": "",
        "ligne": "",
        "accessible": "no"
      }
    },
    {
      "type": "Feature",
      "geometry": {
        "type": "Point",
        "coordinates": [
          2.3853215,
          48.8545824
        ]
      },
      "properties": {
        "id": 256443444,
        "nom": "Rue de Charonne",
        "type": "metro",
        "reseau": "",
        "operateur": "",
        "ligne": "1",
        "accessible": "no"
      }
    },
    {
      "type": "Feature",
      "geometry": {
        "type": "Point",
        "coordinates": [
          2.3798223,
          48.8581794
        ]
      },
      "properties": {
        "id": 256895321,
        "nom": "Voltaire",
        "type": "station",
        "reseau": "",
        "operateur": "",
        "ligne": "",
        "accessible": "no"
      }
    },
    {
      "type": "Feature",
      "geometry": {
        "type": "Point",
        "coordinates": [
          2.3747264,
          48.8610434
        ]
      },
      "properties": {
        "id": 256895609,
        "nom": "Saint-Ambroise",
        "type": "station",
        "reseau": "",
        "operateur": "",
        "ligne": "",
        "accessible": "no"
      }
    },
    {
      "type": "Feature",
      "geometry": {
        "type": "Point",
        "coordinates": [
          2.3694232,
          48.8641124
        ]
      },
      "properties": {
        "id": 256896059,
        "nom": "Oberkampf",
        "type": "station",
        "reseau": "",
        "operateur": "",
        "ligne": "",
        "accessible": "no"
      }
    },
    {
      "type": "Feature",
      "geometry": {
        "type": "Point",
        "coordinates": [
          2.3487457,
          48.8705324
        ]
      },
      "properties": {
        "id": 256897078,
        "nom": "Bonne Nouvelle",
        "type": "station",
        "reseau": "",
        "operateur": "",
        "ligne": "",
        "accessible": "no"
      }
    },
    {
      "type": "Feature",
      "geometry": {
        "type": "Point",
        "coordinates": [
          2.3434953,
          48.8714412
        ]
      },
      "properties": {
        "id": 256897079,
        "nom": "Grands Boulevards",
        "type": "station",
        "reseau": "",
        "operateur": "",
        "ligne": "",
        "accessible": "no"
      }
    },
    {
      "type": "Feature",
      "geometry": {
        "type": "Point",
        "coordinates": [
          2.3385398,
          48.8717041
        ]
      },
      "properties": {
        "id": 256897080,
        "nom": "Richelieu - Drouot",
        "type": "stop",
        "reseau": "RATP",
        "operateur": "RATP",
        "ligne": "",
        "accessible": "no"
      }
    },
    {
      "type": "Feature",
      "geometry": {
        "type": "Point",
        "coordinates": [
          2.3217921,
          48.874471
        ]
      },
      "properties": {
        "id": 256897554,
        "nom": "Saint-Augustin",
        "type": "station",
        "reseau": "",
        "operateur": "",
        "ligne": "",
        "accessible": "no"
      }
    },
    {
      "type": "Feature",
      "geometry": {
        "type": "Point",
        "coordinates": [
          2.395172,
          48.8477961
        ]
      },
      "properties": {
        "id": 257081527,
        "nom": "Avenue Dorian",
        "type": "metro",
        "reseau": "",
        "operateur": "",
        "ligne": "2",
        "accessible": "no"
      }
    },
    {
      "type": "Feature",
      "geometry": {
        "type": "Point",
        "coordinates": [
          2.3269178,
          48.8468022
        ]
      },
      "properties": {
        "id": 257082357,
        "nom": "Rue Notre-Dame des Champs",
        "type": "metro",
        "reseau": "",
        "operateur": "",
        "ligne": "1",
        "accessible": "no"
      }
    },
    {
      "type": "Feature",
      "geometry": {
        "type": "Point",
        "coordinates": [
          2.3265916,
          48.8515167
        ]
      },
      "properties": {
        "id": 257510350,
        "nom": "Boulevard Raspail",
        "type": "metro",
        "reseau": "",
        "operateur": "",
        "ligne": "3",
        "accessible": "no"
      }
    },
    {
      "type": "Feature",
      "geometry": {
        "type": "Point",
        "coordinates": [
          2.3435268,
          48.8513956
        ]
      },
      "properties": {
        "id": 257512478,
        "nom": "Boulevard Saint-Michel",
        "type": "metro",
        "reseau": "",
        "operateur": "",
        "ligne": "1",
        "accessible": "no"
      }
    },
    {
      "type": "Feature",
      "geometry": {
        "type": "Point",
        "coordinates": [
          2.3436351,
          48.8532876
        ]
      },
      "properties": {
        "id": 257628954,
        "nom": "Fontaine Saint-Michel",
        "type": "metro",
        "reseau": "",
        "operateur": "",
        "ligne": "3",
        "accessible": "no"
      }
    },
    {
      "type": "Feature",
      "geometry": {
        "type": "Point",
        "coordinates": [
          2.3258708,
          48.8227168
        ]
      },
      "properties": {
        "id": 257685747,
        "nom": "Place du 25 août 1944",
        "type": "metro",
        "reseau": "",
        "operateur": "",
        "ligne": "1",
        "accessible": "no"
      }
    },
    {
      "type": "Feature",
      "geometry": {
        "type": "Point",
        "coordinates": [
          2.3989508,
          48.8320057
        ]
      },
      "properties": {
        "id": 257688323,
        "nom": "Avenue de la porte de Charenton (Stage Léo Lagrange)",
        "type": "metro",
        "reseau": "",
        "operateur": "",
        "ligne": "1",
        "accessible": "no"
      }
    },
    {
      "type": "Feature",
      "geometry": {
        "type": "Point",
        "coordinates": [
          2.3949173,
          48.8487305
        ]
      },
      "properties": {
        "id": 257712544,
        "nom": "Boulevard Voltaire",
        "type": "metro",
        "reseau": "",
        "operateur": "",
        "ligne": "4",
        "accessible": "no"
      }
    },
    {
      "type": "Feature",
      "geometry": {
        "type": "Point",
        "coordinates": [
          2.3658858,
          48.8464731
        ]
      },
      "properties": {
        "id": 258068724,
        "nom": "Quai de la Rapée",
        "type": "stop",
        "reseau": "",
        "operateur": "",
        "ligne": "",
        "accessible": "unknown"
      }
    },
    {
      "type": "Feature",
      "geometry": {
        "type": "Point",
        "coordinates": [
          2.3123965,
          48.8430419
        ]
      },
      "properties": {
        "id": 258070259,
        "nom": "Rue de Vaugirard",
        "type": "metro",
        "reseau": "",
        "operateur": "",
        "ligne": "1",
        "accessible": "no"
      }
    },
    {
      "type": "Feature",
      "geometry": {
        "type": "Point",
        "coordinates": [
          2.3386517,
          48.8844592
        ]
      },
      "properties": {
        "id": 258885375,
        "nom": "Sans nom",
        "type": "metro",
        "reseau": "",
        "operateur": "",
        "ligne": "",
        "accessible": "no"
      }
    },
    {
      "type": "Feature",
      "geometry": {
        "type": "Point",
        "coordinates": [
          2.3019996,
          48.8451514
        ]
      },
      "properties": {
        "id": 259282760,
        "nom": "Miollis",
        "type": "bus",
        "reseau": "",
        "operateur": "",
        "ligne": "",
        "accessible": "no"
      }
    },
    {
      "type": "Feature",
      "geometry": {
        "type": "Point",
        "coordinates": [
          2.3015826,
          48.8471851
        ]
      },
      "properties": {
        "id": 259282789,
        "nom": "Cambronne",
        "type": "bus",
        "reseau": "",
        "operateur": "",
        "ligne": "",
        "accessible": "no"
      }
    },
    {
      "type": "Feature",
      "geometry": {
        "type": "Point",
        "coordinates": [
          2.3024683,
          48.8429413
        ]
      },
      "properties": {
        "id": 259282878,
        "nom": "Cambronne - Lecourbe",
        "type": "bus",
        "reseau": "",
        "operateur": "",
        "ligne": "",
        "accessible": "no"
      }
    },
    {
      "type": "Feature",
      "geometry": {
        "type": "Point",
        "coordinates": [
          2.2733973,
          48.8285057
        ]
      },
      "properties": {
        "id": 259288775,
        "nom": "Frères Voisin",
        "type": "bus",
        "reseau": "",
        "operateur": "",
        "ligne": "",
        "accessible": "no"
      }
    },
    {
      "type": "Feature",
      "geometry": {
        "type": "Point",
        "coordinates": [
          2.2964219,
          48.8374176
        ]
      },
      "properties": {
        "id": 259289360,
        "nom": "Rue de la Convention",
        "type": "metro",
        "reseau": "",
        "operateur": "",
        "ligne": "1",
        "accessible": "no"
      }
    },
    {
      "type": "Feature",
      "geometry": {
        "type": "Point",
        "coordinates": [
          2.3019742,
          48.8424677
        ]
      },
      "properties": {
        "id": 259442664,
        "nom": "Cambronne - Lecourbe",
        "type": "bus",
        "reseau": "",
        "operateur": "",
        "ligne": "",
        "accessible": "no"
      }
    },
    {
      "type": "Feature",
      "geometry": {
        "type": "Point",
        "coordinates": [
          2.299557,
          48.8417672
        ]
      },
      "properties": {
        "id": 259442692,
        "nom": "Mairie du 15e",
        "type": "bus",
        "reseau": "",
        "operateur": "",
        "ligne": "",
        "accessible": "no"
      }
    },
    {
      "type": "Feature",
      "geometry": {
        "type": "Point",
        "coordinates": [
          2.3534359,
          48.8568341
        ]
      },
      "properties": {
        "id": 259637347,
        "nom": "Rue de Lobau (Bazar de l'Hôtel de Ville)",
        "type": "metro",
        "reseau": "",
        "operateur": "",
        "ligne": "6",
        "accessible": "no"
      }
    },
    {
      "type": "Feature",
      "geometry": {
        "type": "Point",
        "coordinates": [
          2.3522143,
          48.8571724
        ]
      },
      "properties": {
        "id": 259637358,
        "nom": "Hôtel de Ville",
        "type": "metro",
        "reseau": "",
        "operateur": "",
        "ligne": "5",
        "accessible": "no"
      }
    },
    {
      "type": "Feature",
      "geometry": {
        "type": "Point",
        "coordinates": [
          2.3071137,
          48.8439901
        ]
      },
      "properties": {
        "id": 259856696,
        "nom": "Volontaires - Lecourbe",
        "type": "bus",
        "reseau": "",
        "operateur": "",
        "ligne": "",
        "accessible": "no"
      }
    },
    {
      "type": "Feature",
      "geometry": {
        "type": "Point",
        "coordinates": [
          2.3093262,
          48.8446505
        ]
      },
      "properties": {
        "id": 259856729,
        "nom": "Sèvres - Lecourbe",
        "type": "bus",
        "reseau": "",
        "operateur": "",
        "ligne": "",
        "accessible": "no"
      }
    },
    {
      "type": "Feature",
      "geometry": {
        "type": "Point",
        "coordinates": [
          2.3161638,
          48.8466282
        ]
      },
      "properties": {
        "id": 259856862,
        "nom": "Hôpital des Enfants Malades",
        "type": "bus",
        "reseau": "",
        "operateur": "",
        "ligne": "",
        "accessible": "yes"
      }
    },
    {
      "type": "Feature",
      "geometry": {
        "type": "Point",
        "coordinates": [
          2.3046245,
          48.8404472
        ]
      },
      "properties": {
        "id": 260016759,
        "nom": "Cambronne - Vaugirard",
        "type": "bus",
        "reseau": "",
        "operateur": "",
        "ligne": "",
        "accessible": "no"
      }
    },
    {
      "type": "Feature",
      "geometry": {
        "type": "Point",
        "coordinates": [
          2.313091,
          48.8430483
        ]
      },
      "properties": {
        "id": 260016819,
        "nom": "Pasteur – Lycée Buffon",
        "type": "bus",
        "reseau": "",
        "operateur": "",
        "ligne": "",
        "accessible": "unknown"
      }
    },
    {
      "type": "Feature",
      "geometry": {
        "type": "Point",
        "coordinates": [
          2.3126895,
          48.8432471
        ]
      },
      "properties": {
        "id": 260016832,
        "nom": "Pasteur - Lycée Buffon",
        "type": "bus",
        "reseau": "",
        "operateur": "",
        "ligne": "",
        "accessible": "no"
      }
    },
    {
      "type": "Feature",
      "geometry": {
        "type": "Point",
        "coordinates": [
          2.3215121,
          48.8411926
        ]
      },
      "properties": {
        "id": 260016906,
        "nom": "Gare Montparnasse",
        "type": "bus",
        "reseau": "",
        "operateur": "",
        "ligne": "",
        "accessible": "yes"
      }
    },
    {
      "type": "Feature",
      "geometry": {
        "type": "Point",
        "coordinates": [
          2.3518356,
          48.8465303
        ]
      },
      "properties": {
        "id": 260078615,
        "nom": "Cardinal Lemoine",
        "type": "station",
        "reseau": "",
        "operateur": "",
        "ligne": "",
        "accessible": "no"
      }
    },
    {
      "type": "Feature",
      "geometry": {
        "type": "Point",
        "coordinates": [
          2.3484301,
          48.8500649
        ]
      },
      "properties": {
        "id": 260078619,
        "nom": "Maubert - Mutualité",
        "type": "station",
        "reseau": "",
        "operateur": "",
        "ligne": "",
        "accessible": "no"
      }
    },
    {
      "type": "Feature",
      "geometry": {
        "type": "Point",
        "coordinates": [
          2.3441587,
          48.8510938
        ]
      },
      "properties": {
        "id": 260078622,
        "nom": "Cluny-La Sorbonne",
        "type": "station",
        "reseau": "",
        "operateur": "RATP Ile de France Mobilités",
        "ligne": "",
        "accessible": "limited"
      }
    },
    {
      "type": "Feature",
      "geometry": {
        "type": "Point",
        "coordinates": [
          2.3393289,
          48.8522212
        ]
      },
      "properties": {
        "id": 260079008,
        "nom": "Odéon",
        "type": "stop",
        "reseau": "",
        "operateur": "RATP",
        "ligne": "",
        "accessible": "no"
      }
    },
    {
      "type": "Feature",
      "geometry": {
        "type": "Point",
        "coordinates": [
          2.3349394,
          48.8528857
        ]
      },
      "properties": {
        "id": 260079322,
        "nom": "Mabillon",
        "type": "station",
        "reseau": "",
        "operateur": "",
        "ligne": "",
        "accessible": "no"
      }
    },
    {
      "type": "Feature",
      "geometry": {
        "type": "Point",
        "coordinates": [
          2.278379,
          48.8363968
        ]
      },
      "properties": {
        "id": 260231828,
        "nom": "Balard",
        "type": "station",
        "reseau": "",
        "operateur": "",
        "ligne": "",
        "accessible": "no"
      }
    },
    {
      "type": "Feature",
      "geometry": {
        "type": "Point",
        "coordinates": [
          2.2821481,
          48.8387364
        ]
      },
      "properties": {
        "id": 260231831,
        "nom": "Lourmel",
        "type": "station",
        "reseau": "",
        "operateur": "",
        "ligne": "",
        "accessible": "no"
      }
    },
    {
      "type": "Feature",
      "geometry": {
        "type": "Point",
        "coordinates": [
          2.2879218,
          48.8410837
        ]
      },
      "properties": {
        "id": 260231832,
        "nom": "Boucicaut",
        "type": "station",
        "reseau": "RATP",
        "operateur": "",
        "ligne": "",
        "accessible": "no"
      }
    },
    {
      "type": "Feature",
      "geometry": {
        "type": "Point",
        "coordinates": [
          2.2917792,
          48.8426775
        ]
      },
      "properties": {
        "id": 260231833,
        "nom": "Félix Faure",
        "type": "station",
        "reseau": "",
        "operateur": "",
        "ligne": "",
        "accessible": "no"
      }
    },
    {
      "type": "Feature",
      "geometry": {
        "type": "Point",
        "coordinates": [
          2.2789774,
          48.8368934
        ]
      },
      "properties": {
        "id": 260232944,
        "nom": "Avenue Félix Faure",
        "type": "metro",
        "reseau": "",
        "operateur": "",
        "ligne": "4",
        "accessible": "no"
      }
    },
    {
      "type": "Feature",
      "geometry": {
        "type": "Point",
        "coordinates": [
          2.278451,
          48.8369979
        ]
      },
      "properties": {
        "id": 260232954,
        "nom": "Rue Balard (Hôpital Européen Georges Pompidou)",
        "type": "metro",
        "reseau": "",
        "operateur": "",
        "ligne": "3",
        "accessible": "no"
      }
    },
    {
      "type": "Feature",
      "geometry": {
        "type": "Point",
        "coordinates": [
          2.2779984,
          48.8359473
        ]
      },
      "properties": {
        "id": 260232980,
        "nom": "Boulevard du Général Martial Valin (Ministère de la Défense)",
        "type": "metro",
        "reseau": "",
        "operateur": "",
        "ligne": "2",
        "accessible": "no"
      }
    },
    {
      "type": "Feature",
      "geometry": {
        "type": "Point",
        "coordinates": [
          2.278332,
          48.8358725
        ]
      },
      "properties": {
        "id": 260232981,
        "nom": "Boulevard Victor",
        "type": "metro",
        "reseau": "",
        "operateur": "",
        "ligne": "1",
        "accessible": "no"
      }
    },
    {
      "type": "Feature",
      "geometry": {
        "type": "Point",
        "coordinates": [
          2.3306847,
          48.8521942
        ]
      },
      "properties": {
        "id": 260382054,
        "nom": "Michel Debré",
        "type": "bus",
        "reseau": "",
        "operateur": "",
        "ligne": "",
        "accessible": "yes"
      }
    },
    {
      "type": "Feature",
      "geometry": {
        "type": "Point",
        "coordinates": [
          2.3278812,
          48.8516549
        ]
      },
      "properties": {
        "id": 260382056,
        "nom": "Sèvres - Babylone",
        "type": "bus",
        "reseau": "",
        "operateur": "",
        "ligne": "",
        "accessible": "yes"
      }
    },
    {
      "type": "Feature",
      "geometry": {
        "type": "Point",
        "coordinates": [
          2.3306976,
          48.8517884
        ]
      },
      "properties": {
        "id": 260382063,
        "nom": "Michel Debré",
        "type": "bus",
        "reseau": "",
        "operateur": "",
        "ligne": "",
        "accessible": "yes"
      }
    },
    {
      "type": "Feature",
      "geometry": {
        "type": "Point",
        "coordinates": [
          2.3695255,
          48.8453126
        ]
      },
      "properties": {
        "id": 260743999,
        "nom": "Quai de la Rapée",
        "type": "bus",
        "reseau": "",
        "operateur": "",
        "ligne": "",
        "accessible": "no"
      }
    },
    {
      "type": "Feature",
      "geometry": {
        "type": "Point",
        "coordinates": [
          2.3643669,
          48.8446351
        ]
      },
      "properties": {
        "id": 260744181,
        "nom": "Gare d'Austerlitz",
        "type": "bus",
        "reseau": "",
        "operateur": "",
        "ligne": "",
        "accessible": "yes"
      }
    },
    {
      "type": "Feature",
      "geometry": {
        "type": "Point",
        "coordinates": [
          2.372133,
          48.8460447
        ]
      },
      "properties": {
        "id": 260744184,
        "nom": "Gare de Lyon - Diderot",
        "type": "bus",
        "reseau": "",
        "operateur": "",
        "ligne": "",
        "accessible": "no"
      }
    },
    {
      "type": "Feature",
      "geometry": {
        "type": "Point",
        "coordinates": [
          2.3897217,
          48.8390379
        ]
      },
      "properties": {
        "id": 260762378,
        "nom": "Dugommier",
        "type": "station",
        "reseau": "",
        "operateur": "",
        "ligne": "",
        "accessible": "no"
      }
    },
    {
      "type": "Feature",
      "geometry": {
        "type": "Point",
        "coordinates": [
          2.3799474,
          48.8401549
        ]
      },
      "properties": {
        "id": 260762540,
        "nom": "Bercy",
        "type": "station",
        "reseau": "Métro de Paris",
        "operateur": "RATP",
        "ligne": "",
        "accessible": "yes"
      }
    },
    {
      "type": "Feature",
      "geometry": {
        "type": "Point",
        "coordinates": [
          2.3250718,
          48.8410969
        ]
      },
      "properties": {
        "id": 260763474,
        "nom": "Edgar Quinet",
        "type": "stop",
        "reseau": "Métro de Paris",
        "operateur": "RATP",
        "ligne": "",
        "accessible": "unknown"
      }
    },
    {
      "type": "Feature",
      "geometry": {
        "type": "Point",
        "coordinates": [
          2.3202714,
          48.8421022
        ]
      },
      "properties": {
        "id": 260763892,
        "nom": "Montparnasse-Bienvenüe",
        "type": "station",
        "reseau": "Métro de Paris",
        "operateur": "RATP",
        "ligne": "",
        "accessible": "no"
      }
    },
    {
      "type": "Feature",
      "geometry": {
        "type": "Point",
        "coordinates": [
          2.3125906,
          48.8429336
        ]
      },
      "properties": {
        "id": 260764273,
        "nom": "Pasteur",
        "type": "station",
        "reseau": "",
        "operateur": "",
        "ligne": "",
        "accessible": "no"
      }
    },
    {
      "type": "Feature",
      "geometry": {
        "type": "Point",
        "coordinates": [
          2.2935185,
          48.8716801
        ]
      },
      "properties": {
        "id": 260765385,
        "nom": "Kléber",
        "type": "station",
        "reseau": "",
        "operateur": "",
        "ligne": "",
        "accessible": "no"
      }
    },
    {
      "type": "Feature",
      "geometry": {
        "type": "Point",
        "coordinates": [
          2.285778,
          48.8575009
        ]
      },
      "properties": {
        "id": 260765390,
        "nom": "Passy",
        "type": "station",
        "reseau": "",
        "operateur": "RATP",
        "ligne": "",
        "accessible": "yes"
      }
    },
    {
      "type": "Feature",
      "geometry": {
        "type": "Point",
        "coordinates": [
          2.2937335,
          48.8646131
        ]
      },
      "properties": {
        "id": 260767422,
        "nom": "Iéna",
        "type": "station",
        "reseau": "",
        "operateur": "",
        "ligne": "",
        "accessible": "no"
      }
    },
    {
      "type": "Feature",
      "geometry": {
        "type": "Point",
        "coordinates": [
          2.278149,
          48.8640672
        ]
      },
      "properties": {
        "id": 260767423,
        "nom": "Rue de la Pompe",
        "type": "station",
        "reseau": "",
        "operateur": "",
        "ligne": "",
        "accessible": "no"
      }
    },
    {
      "type": "Feature",
      "geometry": {
        "type": "Point",
        "coordinates": [
          2.274062,
          48.8579754
        ]
      },
      "properties": {
        "id": 260767424,
        "nom": "La Muette",
        "type": "station",
        "reseau": "Métro de Paris",
        "operateur": "RATP",
        "ligne": "",
        "accessible": "no"
      }
    },
    {
      "type": "Feature",
      "geometry": {
        "type": "Point",
        "coordinates": [
          2.2702166,
          48.8555764
        ]
      },
      "properties": {
        "id": 260767425,
        "nom": "Ranelagh",
        "type": "station",
        "reseau": "",
        "operateur": "",
        "ligne": "",
        "accessible": "no"
      }
    },
    {
      "type": "Feature",
      "geometry": {
        "type": "Point",
        "coordinates": [
          2.2681802,
          48.8525598
        ]
      },
      "properties": {
        "id": 260767426,
        "nom": "Jasmin",
        "type": "station",
        "reseau": "",
        "operateur": "",
        "ligne": "",
        "accessible": "no"
      }
    },
    {
      "type": "Feature",
      "geometry": {
        "type": "Point",
        "coordinates": [
          2.26111,
          48.8450092
        ]
      },
      "properties": {
        "id": 260767428,
        "nom": "Michel-Ange - Molitor",
        "type": "station",
        "reseau": "",
        "operateur": "",
        "ligne": "",
        "accessible": "no"
      }
    },
    {
      "type": "Feature",
      "geometry": {
        "type": "Point",
        "coordinates": [
          2.2600472,
          48.8430044
        ]
      },
      "properties": {
        "id": 260767429,
        "nom": "Exelmans",
        "type": "station",
        "reseau": "",
        "operateur": "",
        "ligne": "",
        "accessible": "no"
      }
    },
    {
      "type": "Feature",
      "geometry": {
        "type": "Point",
        "coordinates": [
          2.256558,
          48.8377937
        ]
      },
      "properties": {
        "id": 260767430,
        "nom": "Porte de Saint-Cloud",
        "type": "station",
        "reseau": "",
        "operateur": "",
        "ligne": "",
        "accessible": "no"
      }
    },
    {
      "type": "Feature",
      "geometry": {
        "type": "Point",
        "coordinates": [
          2.300292,
          48.8648683
        ]
      },
      "properties": {
        "id": 260769132,
        "nom": "Alma-Marceau",
        "type": "station",
        "reseau": "",
        "operateur": "",
        "ligne": "",
        "accessible": "no"
      }
    },
    {
      "type": "Feature",
      "geometry": {
        "type": "Point",
        "coordinates": [
          2.3100505,
          48.8722352
        ]
      },
      "properties": {
        "id": 260769651,
        "nom": "Saint-Philippe du Roule",
        "type": "station",
        "reseau": "",
        "operateur": "",
        "ligne": "",
        "accessible": "no"
      }
    },
    {
      "type": "Feature",
      "geometry": {
        "type": "Point",
        "coordinates": [
          2.3145029,
          48.873719
        ]
      },
      "properties": {
        "id": 260769652,
        "nom": "Miromesnil",
        "type": "station",
        "reseau": "",
        "operateur": "",
        "ligne": "",
        "accessible": "yes"
      }
    },
    {
      "type": "Feature",
      "geometry": {
        "type": "Point",
        "coordinates": [
          2.3268704,
          48.8514598
        ]
      },
      "properties": {
        "id": 261162833,
        "nom": "Sèvres-Babylone",
        "type": "station",
        "reseau": "",
        "operateur": "",
        "ligne": "",
        "accessible": "no"
      }
    },
    {
      "type": "Feature",
      "geometry": {
        "type": "Point",
        "coordinates": [
          2.326462,
          48.8521939
        ]
      },
      "properties": {
        "id": 261570338,
        "nom": "Sèvres - Babylone",
        "type": "bus",
        "reseau": "",
        "operateur": "",
        "ligne": "",
        "accessible": "yes"
      }
    },
    {
      "type": "Feature",
      "geometry": {
        "type": "Point",
        "coordinates": [
          2.3624966,
          48.8510487
        ]
      },
      "properties": {
        "id": 261582407,
        "nom": "Boulevard Morland (Préfecture de Paris, Mairie de Paris)",
        "type": "metro",
        "reseau": "",
        "operateur": "",
        "ligne": "1",
        "accessible": "no"
      }
    },
    {
      "type": "Feature",
      "geometry": {
        "type": "Point",
        "coordinates": [
          2.3625022,
          48.8513469
        ]
      },
      "properties": {
        "id": 261582469,
        "nom": "Boulevard Henri IV",
        "type": "metro",
        "reseau": "",
        "operateur": "",
        "ligne": "3",
        "accessible": "no"
      }
    },
    {
      "type": "Feature",
      "geometry": {
        "type": "Point",
        "coordinates": [
          2.3202004,
          48.8905757
        ]
      },
      "properties": {
        "id": 261611884,
        "nom": "Brochant",
        "type": "station",
        "reseau": "Métro de Paris",
        "operateur": "RATP",
        "ligne": "",
        "accessible": "no"
      }
    },
    {
      "type": "Feature",
      "geometry": {
        "type": "Point",
        "coordinates": [
          2.3258228,
          48.886971
        ]
      },
      "properties": {
        "id": 261612240,
        "nom": "La Fourche",
        "type": "station",
        "reseau": "Métro de Paris;RATP",
        "operateur": "RATP",
        "ligne": "",
        "accessible": "no"
      }
    },
    {
      "type": "Feature",
      "geometry": {
        "type": "Point",
        "coordinates": [
          2.3074451,
          48.8469753
        ]
      },
      "properties": {
        "id": 261665825,
        "nom": "Ségur",
        "type": "station",
        "reseau": "",
        "operateur": "",
        "ligne": "",
        "accessible": "no"
      }
    },
    {
      "type": "Feature",
      "geometry": {
        "type": "Point",
        "coordinates": [
          2.2953222,
          48.8469751
        ]
      },
      "properties": {
        "id": 261666122,
        "nom": "Avenue Émile Zola",
        "type": "station",
        "reseau": "",
        "operateur": "",
        "ligne": "",
        "accessible": "no"
      }
    },
    {
      "type": "Feature",
      "geometry": {
        "type": "Point",
        "coordinates": [
          2.2989616,
          48.8424229
        ]
      },
      "properties": {
        "id": 262239988,
        "nom": "Mairie du 15e",
        "type": "bus",
        "reseau": "",
        "operateur": "",
        "ligne": "",
        "accessible": "no"
      }
    },
    {
      "type": "Feature",
      "geometry": {
        "type": "Point",
        "coordinates": [
          2.3334483,
          48.8513259
        ]
      },
      "properties": {
        "id": 262241541,
        "nom": "Église Saint-Sulpice",
        "type": "bus",
        "reseau": "",
        "operateur": "",
        "ligne": "",
        "accessible": "no"
      }
    },
    {
      "type": "Feature",
      "geometry": {
        "type": "Point",
        "coordinates": [
          2.3274705,
          48.851769
        ]
      },
      "properties": {
        "id": 262241577,
        "nom": "Sèvres - Babylone",
        "type": "bus",
        "reseau": "",
        "operateur": "",
        "ligne": "",
        "accessible": "yes"
      }
    },
    {
      "type": "Feature",
      "geometry": {
        "type": "Point",
        "coordinates": [
          2.3149201,
          48.8616635
        ]
      },
      "properties": {
        "id": 262278014,
        "nom": "Invalides",
        "type": "bus",
        "reseau": "",
        "operateur": "",
        "ligne": "",
        "accessible": "no"
      }
    },
    {
      "type": "Feature",
      "geometry": {
        "type": "Point",
        "coordinates": [
          2.314402,
          48.8598983
        ]
      },
      "properties": {
        "id": 262279588,
        "nom": "Esplanade des Invalides",
        "type": "bus",
        "reseau": "",
        "operateur": "",
        "ligne": "",
        "accessible": "yes"
      }
    },
    {
      "type": "Feature",
      "geometry": {
        "type": "Point",
        "coordinates": [
          2.3145557,
          48.8627959
        ]
      },
      "properties": {
        "id": 262281221,
        "nom": "Pont Alexandre III",
        "type": "bus",
        "reseau": "",
        "operateur": "",
        "ligne": "",
        "accessible": "no"
      }
    },
    {
      "type": "Feature",
      "geometry": {
        "type": "Point",
        "coordinates": [
          2.3211714,
          48.860576
        ]
      },
      "properties": {
        "id": 263497271,
        "nom": "Assemblée Nationale",
        "type": "station",
        "reseau": "",
        "operateur": "",
        "ligne": "",
        "accessible": "no"
      }
    },
    {
      "type": "Feature",
      "geometry": {
        "type": "Point",
        "coordinates": [
          2.3229865,
          48.8586551
        ]
      },
      "properties": {
        "id": 263497272,
        "nom": "Solférino",
        "type": "station",
        "reseau": "Métro de Paris",
        "operateur": "RATP",
        "ligne": "",
        "accessible": "no"
      }
    },
    {
      "type": "Feature",
      "geometry": {
        "type": "Point",
        "coordinates": [
          2.3277771,
          48.848198
        ]
      },
      "properties": {
        "id": 263499468,
        "nom": "Rennes",
        "type": "station",
        "reseau": "",
        "operateur": "",
        "ligne": "",
        "accessible": "no"
      }
    },
    {
      "type": "Feature",
      "geometry": {
        "type": "Point",
        "coordinates": [
          2.3288039,
          48.8446836
        ]
      },
      "properties": {
        "id": 263499471,
        "nom": "Notre-Dame des Champs",
        "type": "station",
        "reseau": "",
        "operateur": "",
        "ligne": "",
        "accessible": "no"
      }
    },
    {
      "type": "Feature",
      "geometry": {
        "type": "Point",
        "coordinates": [
          2.2555189,
          48.8383928
        ]
      },
      "properties": {
        "id": 263872855,
        "nom": "Porte de Saint-Cloud",
        "type": "transport",
        "reseau": "",
        "operateur": "",
        "ligne": "",
        "accessible": "unknown"
      }
    },
    {
      "type": "Feature",
      "geometry": {
        "type": "Point",
        "coordinates": [
          2.3228167,
          48.8657199
        ]
      },
      "properties": {
        "id": 263917856,
        "nom": "Concorde",
        "type": "stop",
        "reseau": "",
        "operateur": "RATP",
        "ligne": "",
        "accessible": "no"
      }
    },
    {
      "type": "Feature",
      "geometry": {
        "type": "Point",
        "coordinates": [
          2.3252605,
          48.870318
        ]
      },
      "properties": {
        "id": 264117790,
        "nom": "Madeleine",
        "type": "stop",
        "reseau": "",
        "operateur": "",
        "ligne": "",
        "accessible": "unknown"
      }
    },
    {
      "type": "Feature",
      "geometry": {
        "type": "Point",
        "coordinates": [
          2.3313089,
          48.8516549
        ]
      },
      "properties": {
        "id": 264246761,
        "nom": "Rue du Four",
        "type": "metro",
        "reseau": "",
        "operateur": "",
        "ligne": "2",
        "accessible": "no"
      }
    },
    {
      "type": "Feature",
      "geometry": {
        "type": "Point",
        "coordinates": [
          2.3664919,
          48.8461009
        ]
      },
      "properties": {
        "id": 264258026,
        "nom": "Place Mazas",
        "type": "metro",
        "reseau": "",
        "operateur": "",
        "ligne": "1",
        "accessible": "no"
      }
    },
    {
      "type": "Feature",
      "geometry": {
        "type": "Point",
        "coordinates": [
          2.2938643,
          48.8447112
        ]
      },
      "properties": {
        "id": 264469160,
        "nom": "Commerce",
        "type": "station",
        "reseau": "",
        "operateur": "",
        "ligne": "",
        "accessible": "no"
      }
    },
    {
      "type": "Feature",
      "geometry": {
        "type": "Point",
        "coordinates": [
          2.3060728,
          48.8546647
        ]
      },
      "properties": {
        "id": 264469541,
        "nom": "École Militaire",
        "type": "station",
        "reseau": "",
        "operateur": "",
        "ligne": "",
        "accessible": "no"
      }
    },
    {
      "type": "Feature",
      "geometry": {
        "type": "Point",
        "coordinates": [
          2.3103234,
          48.8575602
        ]
      },
      "properties": {
        "id": 264473011,
        "nom": "La Tour Maubourg",
        "type": "station",
        "reseau": "",
        "operateur": "",
        "ligne": "",
        "accessible": "no"
      }
    },
    {
      "type": "Feature",
      "geometry": {
        "type": "Point",
        "coordinates": [
          2.3142152,
          48.8596358
        ]
      },
      "properties": {
        "id": 264473695,
        "nom": "Invalides",
        "type": "stop",
        "reseau": "",
        "operateur": "",
        "ligne": "",
        "accessible": "no"
      }
    },
    {
      "type": "Feature",
      "geometry": {
        "type": "Point",
        "coordinates": [
          2.3666323,
          48.8633194
        ]
      },
      "properties": {
        "id": 264476971,
        "nom": "Filles du Calvaire",
        "type": "station",
        "reseau": "",
        "operateur": "",
        "ligne": "",
        "accessible": "no"
      }
    },
    {
      "type": "Feature",
      "geometry": {
        "type": "Point",
        "coordinates": [
          2.367234,
          48.8611816
        ]
      },
      "properties": {
        "id": 264479724,
        "nom": "Saint-Sébastien - Froissart",
        "type": "station",
        "reseau": "",
        "operateur": "RATP",
        "ligne": "",
        "accessible": "no"
      }
    },
    {
      "type": "Feature",
      "geometry": {
        "type": "Point",
        "coordinates": [
          2.3681408,
          48.8574434
        ]
      },
      "properties": {
        "id": 264479775,
        "nom": "Chemin Vert",
        "type": "station",
        "reseau": "",
        "operateur": "",
        "ligne": "",
        "accessible": "no"
      }
    },
    {
      "type": "Feature",
      "geometry": {
        "type": "Point",
        "coordinates": [
          2.3685718,
          48.8532438
        ]
      },
      "properties": {
        "id": 264480619,
        "nom": "Bastille",
        "type": "stop",
        "reseau": "",
        "operateur": "",
        "ligne": "",
        "accessible": "unknown"
      }
    },
    {
      "type": "Feature",
      "geometry": {
        "type": "Point",
        "coordinates": [
          2.3760274,
          48.8512945
        ]
      },
      "properties": {
        "id": 264480784,
        "nom": "Ledru-Rollin",
        "type": "station",
        "reseau": "",
        "operateur": "",
        "ligne": "",
        "accessible": "no"
      }
    },
    {
      "type": "Feature",
      "geometry": {
        "type": "Point",
        "coordinates": [
          2.3842222,
          48.8501609
        ]
      },
      "properties": {
        "id": 264481019,
        "nom": "Faidherbe — Chaligny",
        "type": "station",
        "reseau": "",
        "operateur": "",
        "ligne": "",
        "accessible": "no"
      }
    },
    {
      "type": "Feature",
      "geometry": {
        "type": "Point",
        "coordinates": [
          2.3901962,
          48.844304
        ]
      },
      "properties": {
        "id": 264481854,
        "nom": "Montgallet",
        "type": "station",
        "reseau": "",
        "operateur": "",
        "ligne": "",
        "accessible": "no"
      }
    },
    {
      "type": "Feature",
      "geometry": {
        "type": "Point",
        "coordinates": [
          2.4024586,
          48.8370694
        ]
      },
      "properties": {
        "id": 264482226,
        "nom": "Michel Bizot",
        "type": "station",
        "reseau": "",
        "operateur": "",
        "ligne": "",
        "accessible": "no"
      }
    },
    {
      "type": "Feature",
      "geometry": {
        "type": "Point",
        "coordinates": [
          2.4061775,
          48.8352765
        ]
      },
      "properties": {
        "id": 264482297,
        "nom": "Porte Dorée",
        "type": "station",
        "reseau": "",
        "operateur": "",
        "ligne": "",
        "accessible": "no"
      }
    },
    {
      "type": "Feature",
      "geometry": {
        "type": "Point",
        "coordinates": [
          2.4005236,
          48.8451759
        ]
      },
      "properties": {
        "id": 264490283,
        "nom": "Picpus",
        "type": "station",
        "reseau": "",
        "operateur": "",
        "ligne": "",
        "accessible": "no"
      }
    },
    {
      "type": "Feature",
      "geometry": {
        "type": "Point",
        "coordinates": [
          2.3664158,
          48.8270333
        ]
      },
      "properties": {
        "id": 264491193,
        "nom": "Olympiades",
        "type": "stop",
        "reseau": "RATP",
        "operateur": "",
        "ligne": "",
        "accessible": "unknown"
      }
    },
    {
      "type": "Feature",
      "geometry": {
        "type": "Point",
        "coordinates": [
          2.3990408,
          48.8322315
        ]
      },
      "properties": {
        "id": 264491320,
        "nom": "Porte de Charenton",
        "type": "station",
        "reseau": "",
        "operateur": "",
        "ligne": "",
        "accessible": "no"
      }
    },
    {
      "type": "Feature",
      "geometry": {
        "type": "Point",
        "coordinates": [
          2.3326426,
          48.8763067
        ]
      },
      "properties": {
        "id": 264495077,
        "nom": "Trinité d'Estienne d'Orves",
        "type": "station",
        "reseau": "",
        "operateur": "",
        "ligne": "",
        "accessible": "no"
      }
    },
    {
      "type": "Feature",
      "geometry": {
        "type": "Point",
        "coordinates": [
          2.3374234,
          48.8760405
        ]
      },
      "properties": {
        "id": 264495078,
        "nom": "Notre-Dame de Lorette",
        "type": "station",
        "reseau": "",
        "operateur": "",
        "ligne": "",
        "accessible": "no"
      }
    },
    {
      "type": "Feature",
      "geometry": {
        "type": "Point",
        "coordinates": [
          2.3374748,
          48.8784466
        ]
      },
      "properties": {
        "id": 264504832,
        "nom": "Saint-Georges",
        "type": "station",
        "reseau": "",
        "operateur": "",
        "ligne": "",
        "accessible": "no"
      }
    },
    {
      "type": "Feature",
      "geometry": {
        "type": "Point",
        "coordinates": [
          2.3386421,
          48.8848041
        ]
      },
      "properties": {
        "id": 264505115,
        "nom": "Abbesses",
        "type": "station",
        "reseau": "",
        "operateur": "",
        "ligne": "",
        "accessible": "no"
      }
    },
    {
      "type": "Feature",
      "geometry": {
        "type": "Point",
        "coordinates": [
          2.3387677,
          48.8897556
        ]
      },
      "properties": {
        "id": 264505153,
        "nom": "Lamarck - Caulaincourt",
        "type": "station",
        "reseau": "",
        "operateur": "",
        "ligne": "",
        "accessible": "no"
      }
    },
    {
      "type": "Feature",
      "geometry": {
        "type": "Point",
        "coordinates": [
          2.3446536,
          48.8925349
        ]
      },
      "properties": {
        "id": 264505450,
        "nom": "Jules Joffrin",
        "type": "station",
        "reseau": "",
        "operateur": "",
        "ligne": "",
        "accessible": "no"
      }
    },
    {
      "type": "Feature",
      "geometry": {
        "type": "Point",
        "coordinates": [
          2.359259,
          48.897694
        ]
      },
      "properties": {
        "id": 264505930,
        "nom": "Porte de la Chapelle",
        "type": "station",
        "reseau": "",
        "operateur": "",
        "ligne": "",
        "accessible": "limited"
      }
    },
    {
      "type": "Feature",
      "geometry": {
        "type": "Point",
        "coordinates": [
          2.3478412,
          48.8938481
        ]
      },
      "properties": {
        "id": 264505993,
        "nom": "Simplon",
        "type": "station",
        "reseau": "",
        "operateur": "RATP",
        "ligne": "",
        "accessible": "no"
      }
    },
    {
      "type": "Feature",
      "geometry": {
        "type": "Point",
        "coordinates": [
          2.3495534,
          48.8868654
        ]
      },
      "properties": {
        "id": 264507100,
        "nom": "Château Rouge",
        "type": "stop",
        "reseau": "",
        "operateur": "",
        "ligne": "",
        "accessible": "unknown"
      }
    },
    {
      "type": "Feature",
      "geometry": {
        "type": "Point",
        "coordinates": [
          2.3579127,
          48.8762027
        ]
      },
      "properties": {
        "id": 264508548,
        "nom": "Gare de l'Est",
        "type": "station",
        "reseau": "Métro de Paris",
        "operateur": "RATP",
        "ligne": "",
        "accessible": "unknown"
      }
    },
    {
      "type": "Feature",
      "geometry": {
        "type": "Point",
        "coordinates": [
          2.3493931,
          48.8639526
        ]
      },
      "properties": {
        "id": 264509793,
        "nom": "Étienne Marcel",
        "type": "stop",
        "reseau": "",
        "operateur": "RATP",
        "ligne": "",
        "accessible": "no"
      }
    },
    {
      "type": "Feature",
      "geometry": {
        "type": "Point",
        "coordinates": [
          2.3563063,
          48.8728919
        ]
      },
      "properties": {
        "id": 264512252,
        "nom": "Château d'Eau",
        "type": "stop",
        "reseau": "",
        "operateur": "RATP",
        "ligne": "",
        "accessible": "no"
      }
    },
    {
      "type": "Feature",
      "geometry": {
        "type": "Point",
        "coordinates": [
          2.3458801,
          48.8621646
        ]
      },
      "properties": {
        "id": 264513655,
        "nom": "Les Halles",
        "type": "stop",
        "reseau": "",
        "operateur": "RATP",
        "ligne": "",
        "accessible": "unknown"
      }
    },
    {
      "type": "Feature",
      "geometry": {
        "type": "Point",
        "coordinates": [
          2.347542,
          48.8553245
        ]
      },
      "properties": {
        "id": 264514896,
        "nom": "Cité",
        "type": "station",
        "reseau": "Métro de Paris",
        "operateur": "RATP",
        "ligne": "",
        "accessible": "no"
      }
    },
    {
      "type": "Feature",
      "geometry": {
        "type": "Point",
        "coordinates": [
          2.3435081,
          48.8532864
        ]
      },
      "properties": {
        "id": 264515098,
        "nom": "Saint-Michel",
        "type": "station",
        "reseau": "Métro de Paris",
        "operateur": "RATP",
        "ligne": "",
        "accessible": "yes"
      }
    },
    {
      "type": "Feature",
      "geometry": {
        "type": "Point",
        "coordinates": [
          2.334471,
          48.8536304
        ]
      },
      "properties": {
        "id": 264519782,
        "nom": "Saint-Germain-des-Prés",
        "type": "station",
        "reseau": "",
        "operateur": "",
        "ligne": "",
        "accessible": "no"
      }
    },
    {
      "type": "Feature",
      "geometry": {
        "type": "Point",
        "coordinates": [
          2.3270206,
          48.847098
        ]
      },
      "properties": {
        "id": 264520061,
        "nom": "Saint-Placide",
        "type": "station",
        "reseau": "Métro de Paris",
        "operateur": "RATP",
        "ligne": "",
        "accessible": "no"
      }
    },
    {
      "type": "Feature",
      "geometry": {
        "type": "Point",
        "coordinates": [
          2.3290114,
          48.8422164
        ]
      },
      "properties": {
        "id": 264526095,
        "nom": "Vavin",
        "type": "station",
        "reseau": "",
        "operateur": "RATP",
        "ligne": "",
        "accessible": "no"
      }
    },
    {
      "type": "Feature",
      "geometry": {
        "type": "Point",
        "coordinates": [
          2.2858803,
          48.84647
        ]
      },
      "properties": {
        "id": 264534423,
        "nom": "Charles Michels",
        "type": "station",
        "reseau": "Métro de Paris",
        "operateur": "RATP",
        "ligne": "",
        "accessible": "no"
      }
    },
    {
      "type": "Feature",
      "geometry": {
        "type": "Point",
        "coordinates": [
          2.2782825,
          48.8461781
        ]
      },
      "properties": {
        "id": 264534424,
        "nom": "Javel - André Citroën",
        "type": "station",
        "reseau": "Métro de Paris",
        "operateur": "RATP",
        "ligne": "",
        "accessible": "no"
      }
    },
    {
      "type": "Feature",
      "geometry": {
        "type": "Point",
        "coordinates": [
          2.2686366,
          48.8473124
        ]
      },
      "properties": {
        "id": 264534683,
        "nom": "Église d'Auteuil",
        "type": "station",
        "reseau": "",
        "operateur": "RATP",
        "ligne": "",
        "accessible": "no"
      }
    },
    {
      "type": "Feature",
      "geometry": {
        "type": "Point",
        "coordinates": [
          2.2587539,
          48.8480881
        ]
      },
      "properties": {
        "id": 264535735,
        "nom": "Porte d'Auteuil",
        "type": "station",
        "reseau": "",
        "operateur": "",
        "ligne": "",
        "accessible": "no"
      }
    },
    {
      "type": "Feature",
      "geometry": {
        "type": "Point",
        "coordinates": [
          2.2671305,
          48.8454285
        ]
      },
      "properties": {
        "id": 264537727,
        "nom": "Chardon-Lagache",
        "type": "station",
        "reseau": "",
        "operateur": "",
        "ligne": "",
        "accessible": "no"
      }
    },
    {
      "type": "Feature",
      "geometry": {
        "type": "Point",
        "coordinates": [
          2.2716976,
          48.8468116
        ]
      },
      "properties": {
        "id": 264538576,
        "nom": "Mirabeau",
        "type": "station",
        "reseau": "",
        "operateur": "",
        "ligne": "",
        "accessible": "no"
      }
    },
    {
      "type": "Feature",
      "geometry": {
        "type": "Point",
        "coordinates": [
          2.3710671,
          48.8699854
        ]
      },