{
  "type": "FeatureCollection",
  "features": [
    {
      "type": "Feature",
      "geometry": {
        "type": "Point",
        "coordinates": [
          2.3680844979417,
          48.8761373390584
        ]
      },
      "properties": {
        "id": "10115",
        "nom": "Granges aux Belles",
        "capacite": 27,
        "horaires": null
      }
    },
    {
      "type": "Feature",
      "geometry": {
        "type": "Point",
        "coordinates": [
          2.3703941702842717,
          48.884492238407525
        ]
      },
      "properties": {
        "id": "19003",
        "nom": "Quai de la Seine",
        "capacite": 24,
        "horaires": null
      }
    },
    {
      "type": "Feature",
      "geometry": {
        "type": "Point",
        "coordinates": [
          2.4586871266365056,
          48.82237977153955
        ]
      },
      "properties": {
        "id": "12128",
        "nom": "Pyramide - Ecole du Breuil",
        "capacite": 34,
        "horaires": null
      }
    },
    {
      "type": "Feature",
      "geometry": {
        "type": "Point",
        "coordinates": [
          2.2977904602885,
          48.873409276267
        ]
      },
      "properties": {
        "id": "8028",
        "nom": "Arsène Houssaye - Champs-Elysées",
        "capacite": 0,
        "horaires": null
      }
    },
    {
      "type": "Feature",
      "geometry": {
        "type": "Point",
        "coordinates": [
          2.273029983043671,
          48.85034821320644
        ]
      },
      "properties": {
        "id": "16136",
        "nom": "Théophile Gautier - François Millet",
        "capacite": 30,
        "horaires": null
      }
    },
    {
      "type": "Feature",
      "geometry": {
        "type": "Point",
        "coordinates": [
          2.373463287949562,
          48.88125496379482
        ]
      },
      "properties": {
        "id": "19022",
        "nom": "Marché Secrétan",
        "capacite": 26,
        "horaires": null
      }
    },
    {
      "type": "Feature",
      "geometry": {
        "type": "Point",
        "coordinates": [
          2.3187401890754704,
          48.90379820774301
        ]
      },
      "properties": {
        "id": "21104",
        "nom": "Madame de Sanzillon - Mozart",
        "capacite": 22,
        "horaires": null
      }
    },
    {
      "type": "Feature",
      "geometry": {
        "type": "Point",
        "coordinates": [
          2.2234171606307,
          48.93870344444
        ]
      },
      "properties": {
        "id": "51004",
        "nom": "Général Delambre - Prebuard",
        "capacite": 29,
        "horaires": null
      }
    },
    {
      "type": "Feature",
      "geometry": {
        "type": "Point",
        "coordinates": [
          2.3793068155646,
          48.846171461187
        ]
      },
      "properties": {
        "id": "12009",
        "nom": "Charenton - Diderot",
        "capacite": 18,
        "horaires": null
      }
    },
    {
      "type": "Feature",
      "geometry": {
        "type": "Point",
        "coordinates": [
          2.381868,
          48.89465
        ]
      },
      "properties": {
        "id": "19008",
        "nom": "Flandre - Alphonse Karr",
        "capacite": 26,
        "horaires": null
      }
    },
    {
      "type": "Feature",
      "geometry": {
        "type": "Point",
        "coordinates": [
          2.3861649278137,
          48.842647778701
        ]
      },
      "properties": {
        "id": "12027",
        "nom": "Montgallet - Charenton",
        "capacite": 16,
        "horaires": null
      }
    },
    {
      "type": "Feature",
      "geometry": {
        "type": "Point",
        "coordinates": [
          2.3523425683379173,
          48.91835629408464
        ]
      },
      "properties": {
        "id": "32010",
        "nom": "Place aux Étoiles",
        "capacite": 40,
        "horaires": null
      }
    },
    {
      "type": "Feature",
      "geometry": {
        "type": "Point",
        "coordinates": [
          2.3201214185208,
          48.861411014652
        ]
      },
      "properties": {
        "id": "7009",
        "nom": "Assemblée Nationale",
        "capacite": 76,
        "horaires": null
      }
    },
    {
      "type": "Feature",
      "geometry": {
        "type": "Point",
        "coordinates": [
          2.314494143994255,
          48.88713901475306
        ]
      },
      "properties": {
        "id": "17017",
        "nom": "Gare de Pont-Cardinet",
        "capacite": 34,
        "horaires": null
      }
    },
    {
      "type": "Feature",
      "geometry": {
        "type": "Point",
        "coordinates": [
          2.3689296841621403,
          48.8862524447104
        ]
      },
      "properties": {
        "id": "19109",
        "nom": "Tanger - Place du Maroc",
        "capacite": 19,
        "horaires": null
      }
    },
    {
      "type": "Feature",
      "geometry": {
        "type": "Point",
        "coordinates": [
          2.3202589899302,
          48.881823370567
        ]
      },
      "properties": {
        "id": "8051",
        "nom": "Batignolles - Rome",
        "capacite": 15,
        "horaires": null
      }
    },
    {
      "type": "Feature",
      "geometry": {
        "type": "Point",
        "coordinates": [
          2.277785539627075,
          48.85132886434057
        ]
      },
      "properties": {
        "id": "16029",
        "nom": "Maison de Radio - France",
        "capacite": 47,
        "horaires": null
      }
    },
    {
      "type": "Feature",
      "geometry": {
        "type": "Point",
        "coordinates": [
          2.344057559967,
          48.860089892617
        ]
      },
      "properties": {
        "id": "1117",
        "nom": "Pont Neuf - Rivoli",
        "capacite": 27,
        "horaires": null
      }
    },
    {
      "type": "Feature",
      "geometry": {
        "type": "Point",
        "coordinates": [
          2.3604946,
          48.8377016
        ]
      },
      "properties": {
        "id": "13103",
        "nom": "Hôpital Pitié Salpêtrière",
        "capacite": 50,
        "horaires": null
      }
    },
    {
      "type": "Feature",
      "geometry": {
        "type": "Point",
        "coordinates": [
          2.2780618071556,
          48.840639944297
        ]
      },
      "properties": {
        "id": "15059",
        "nom": "Parc André Citroën",
        "capacite": 65,
        "horaires": null
      }
    },
    {
      "type": "Feature",
      "geometry": {
        "type": "Point",
        "coordinates": [
          2.3688706755638,
          48.821768747596
        ]
      },
      "properties": {
        "id": "13041",
        "nom": "Porte d'Ivry",
        "capacite": 50,
        "horaires": null
      }
    },
    {
      "type": "Feature",
      "geometry": {
        "type": "Point",
        "coordinates": [
          2.2784319519997,
          48.827472525227
        ]
      },
      "properties": {
        "id": "21311",
        "nom": "Parvis Corentin Celton",
        "capacite": 55,
        "horaires": null
      }
    },
    {
      "type": "Feature",
      "geometry": {
        "type": "Point",
        "coordinates": [
          2.3752778,
          48.8555508
        ]
      },
      "properties": {
        "id": "11003",
        "nom": "Keller - La Roquette",
        "capacite": 34,
        "horaires": null
      }
    },
    {
      "type": "Feature",
      "geometry": {
        "type": "Point",
        "coordinates": [
          2.39054639062,
          48.855603162026
        ]
      },
      "properties": {
        "id": "11019",
        "nom": "Charonne - Philippe-Auguste",
        "capacite": 32,
        "horaires": null
      }
    },
    {
      "type": "Feature",
      "geometry": {
        "type": "Point",
        "coordinates": [
          2.2831090539694,
          48.843156111116
        ]
      },
      "properties": {
        "id": "15063",
        "nom": "Convention - Saint-Charles",
        "capacite": 23,
        "horaires": null
      }
    },
    {
      "type": "Feature",
      "geometry": {
        "type": "Point",
        "coordinates": [
          2.429966032505036,
          48.85273792380526
        ]
      },
      "properties": {
        "id": "31018",
        "nom": "Gambetta - Michelet",
        "capacite": 33,
        "horaires": null
      }
    },
    {
      "type": "Feature",
      "geometry": {
        "type": "Point",
        "coordinates": [
          2.389432489871979,
          48.90661553626751
        ]
      },
      "properties": {
        "id": "33005",
        "nom": "République - Henri Barbusse",
        "capacite": 32,
        "horaires": null
      }
    },
    {
      "type": "Feature",
      "geometry": {
        "type": "Point",
        "coordinates": [
          2.3408563,
          48.8313878
        ]
      },
      "properties": {
        "id": "14007",
        "nom": "Ferrus - Saint-Jacques",
        "capacite": 34,
        "horaires": null
      }
    },
    {
      "type": "Feature",
      "geometry": {
        "type": "Point",
        "coordinates": [
          2.3407534480528,
          48.873267137583
        ]
      },
      "properties": {
        "id": "9013",
        "nom": "Mairie du 9ème",
        "capacite": 24,
        "horaires": null
      }
    },
    {
      "type": "Feature",
      "geometry": {
        "type": "Point",
        "coordinates": [
          2.3704235663952966,
          48.838946417408025
        ]
      },
      "properties": {
        "id": "13020",
        "nom": "Paul Klee - Place Augusta Holmes",
        "capacite": 43,
        "horaires": null
      }
    },
    {
      "type": "Feature",
      "geometry": {
        "type": "Point",
        "coordinates": [
          2.4030599377642674,
          48.88179064200294
        ]
      },
      "properties": {
        "id": "19124",
        "nom": "Alexander Fleming - Belvédère",
        "capacite": 31,
        "horaires": null
      }
    },
    {
      "type": "Feature",
      "geometry": {
        "type": "Point",
        "coordinates": [
          2.3415737262044938,
          48.83507657562064
        ]
      },
      "properties": {
        "id": "14113",
        "nom": "Santé - Arago",
        "capacite": 38,
        "horaires": null
      }
    },
    {
      "type": "Feature",
      "geometry": {
        "type": "Point",
        "coordinates": [
          2.3668321967125,
          48.820482438381
        ]
      },
      "properties": {
        "id": "13117",
        "nom": "Stade Georges Carpentier",
        "capacite": 40,
        "horaires": null
      }
    },
    {
      "type": "Feature",
      "geometry": {
        "type": "Point",
        "coordinates": [
          2.356796,
          48.874575
        ]
      },
      "properties": {
        "id": "10017",
        "nom": "Gare de l'Est - Fidélité",
        "capacite": 15,
        "horaires": null
      }
    },
    {
      "type": "Feature",
      "geometry": {
        "type": "Point",
        "coordinates": [
          2.3684485629201,
          48.879330755297
        ]
      },
      "properties": {
        "id": "10110",
        "nom": "Louis Blanc - Jemmapes",
        "capacite": 31,
        "horaires": null
      }
    },
    {
      "type": "Feature",
      "geometry": {
        "type": "Point",
        "coordinates": [
          2.402097210288048,
          48.80108159069614
        ]
      },
      "properties": {
        "id": "44002",
        "nom": "Paul Vaillant-Couturier - Gare RER",
        "capacite": 26,
        "horaires": null
      }
    },
    {
      "type": "Feature",
      "geometry": {
        "type": "Point",
        "coordinates": [
          2.348489575088024,
          48.84158856925782
        ]
      },
      "properties": {
        "id": "5014",
        "nom": "Jean Calvin - Tournefort",
        "capacite": 28,
        "horaires": null
      }
    },
    {
      "type": "Feature",
      "geometry": {
        "type": "Point",
        "coordinates": [
          2.329095,
          48.822032
        ]
      },
      "properties": {
        "id": "14131",
        "nom": "Jourdan - Monticelli",
        "capacite": 30,
        "horaires": null
      }
    },
    {
      "type": "Feature",
      "geometry": {
        "type": "Point",
        "coordinates": [
          2.4044052511453633,
          48.83787825992554
        ]
      },
      "properties": {
        "id": "12155",
        "nom": "Rottembourg - Général Michel Bizot",
        "capacite": 43,
        "horaires": null
      }
    },
    {
      "type": "Feature",
      "geometry": {
        "type": "Point",
        "coordinates": [
          2.3545114456374,
          48.877356057652
        ]
      },
      "properties": {
        "id": "10021",
        "nom": "Marché Saint-Quentin",
        "capacite": 15,
        "horaires": null
      }
    },
    {
      "type": "Feature",
      "geometry": {
        "type": "Point",
        "coordinates": [
          2.256898172199726,
          48.947022436806705
        ]
      },
      "properties": {
        "id": "51001",
        "nom": "Gare d'Argenteuil",
        "capacite": 40,
        "horaires": null
      }
    },
    {
      "type": "Feature",
      "geometry": {
        "type": "Point",
        "coordinates": [
          2.3254923149943,
          48.83254578123
        ]
      },
      "properties": {
        "id": "14032",
        "nom": "Mairie du 14ème",
        "capacite": 32,
        "horaires": null
      }
    },
    {
      "type": "Feature",
      "geometry": {
        "type": "Point",
        "coordinates": [
          2.3473486304283,
          48.848904447989
        ]
      },
      "properties": {
        "id": "5007",
        "nom": "Ecoles - Carmes",
        "capacite": 36,
        "horaires": null
      }
    },
    {
      "type": "Feature",
      "geometry": {
        "type": "Point",
        "coordinates": [
          2.348572461702221,
          48.83548071896613
        ]
      },
      "properties": {
        "id": "13005",
        "nom": "Cordelières - Arago",
        "capacite": 60,
        "horaires": null
      }
    },
    {
      "type": "Feature",
      "geometry": {
        "type": "Point",
        "coordinates": [
          2.3566960206458,
          48.861636880212
        ]
      },
      "properties": {
        "id": "3009",
        "nom": "Temple - Haudriettes",
        "capacite": 19,
        "horaires": null
      }
    },
    {
      "type": "Feature",
      "geometry": {
        "type": "Point",
        "coordinates": [
          2.2965213,
          48.8232579
        ]
      },
      "properties": {
        "id": "21706",
        "nom": "Jean Bleuzen - Square du 11 Novembre",
        "capacite": 49,
        "horaires": null
      }
    },
    {
      "type": "Feature",
      "geometry": {
        "type": "Point",
        "coordinates": [
          2.3687169334905405,
          48.81552718820216
        ]
      },
      "properties": {
        "id": "42026",
        "nom": "Barbès - Monique Maunoury",
        "capacite": 40,
        "horaires": null
      }
    },
    {
      "type": "Feature",
      "geometry": {
        "type": "Point",
        "coordinates": [
          2.3561057075858,
          48.884178287286
        ]
      },
      "properties": {
        "id": "10041",
        "nom": "Gare du Nord - La Chapelle",
        "capacite": 18,
        "horaires": null
      }
    },
    {
      "type": "Feature",
      "geometry": {
        "type": "Point",
        "coordinates": [
          2.330567417577153,
          48.86557114282421
        ]
      },
      "properties": {
        "id": "1017",
        "nom": "Saint-Honoré - 29 juillet",
        "capacite": 20,
        "horaires": null
      }
    },
    {
      "type": "Feature",
      "geometry": {
        "type": "Point",
        "coordinates": [
          2.373795211315155,
          48.808439376064946
        ]
      },
      "properties": {
        "id": "42028",
        "nom": "Verdun - Carnot",
        "capacite": 28,
        "horaires": null
      }
    },
    {
      "type": "Feature",
      "geometry": {
        "type": "Point",
        "coordinates": [
          2.3939734697342,
          48.782427463041
        ]
      },
      "properties": {
        "id": "44008",
        "nom": "Youri Gagarine - Commune de Paris",
        "capacite": 33,
        "horaires": null
      }
    },
    {
      "type": "Feature",
      "geometry": {
        "type": "Point",
        "coordinates": [
          2.318882101207347,
          48.83088717455243
        ]
      },
      "properties": {
        "id": "14027",
        "nom": "Gergovie - Alésia",
        "capacite": 54,
        "horaires": null
      }
    },
    {
      "type": "Feature",
      "geometry": {
        "type": "Point",
        "coordinates": [
          2.3571084495564,
          48.838151608087
        ]
      },
      "properties": {
        "id": "13006",
        "nom": "Duméril - Jeanne d'Arc",
        "capacite": 40,
        "horaires": null
      }
    },
    {
      "type": "Feature",
      "geometry": {
        "type": "Point",
        "coordinates": [
          2.1655967831611638,
          48.87555620763429
        ]
      },
      "properties": {
        "id": "25004",
        "nom": "Marcel Pourtout - Édouard Manet",
        "capacite": 24,
        "horaires": null
      }
    },
    {
      "type": "Feature",
      "geometry": {
        "type": "Point",
        "coordinates": [
          2.356877340669728,
          48.83907826424974
        ]
      },
      "properties": {
        "id": "5105",
        "nom": "Geoffroy-Saint-Hilaire - Saint-Marcel",
        "capacite": 17,
        "horaires": null
      }
    },
    {
      "type": "Feature",
      "geometry": {
        "type": "Point",
        "coordinates": [
          2.2246733296048142,
          48.86096384533371
        ]
      },
      "properties": {
        "id": "21511",
        "nom": "Marcel Monge - Marcel Dassault",
        "capacite": 46,
        "horaires": null
      }
    },
    {
      "type": "Feature",
      "geometry": {
        "type": "Point",
        "coordinates": [
          2.351288666219873,
          48.891213890844654
        ]
      },
      "properties": {
        "id": "18023",
        "nom": "Ordener - Poissonniers",
        "capacite": 35,
        "horaires": null
      }
    },
    {
      "type": "Feature",
      "geometry": {
        "type": "Point",
        "coordinates": [
          2.3458001,
          48.8978867
        ]
      },
      "properties": {
        "id": "18134",
        "nom": "Ney - Porte de Clignancourt",
        "capacite": 25,
        "horaires": null
      }
    },
    {
      "type": "Feature",
      "geometry": {
        "type": "Point",
        "coordinates": [
          2.328063700029,
          48.883687771522
        ]
      },
      "properties": {
        "id": "18044",
        "nom": "Clichy - Douai",
        "capacite": 32,
        "horaires": null
      }
    },
    {
      "type": "Feature",
      "geometry": {
        "type": "Point",
        "coordinates": [
          2.3076190799475,
          48.870475399387
        ]
      },
      "properties": {
        "id": "8039",
        "nom": "Colisée - Champs-Elysées",
        "capacite": 24,
        "horaires": null
      }
    },
    {
      "type": "Feature",
      "geometry": {
        "type": "Point",
        "coordinates": [
          2.328318,
          48.815007
        ]
      },
      "properties": {
        "id": "21213",
        "nom": "Vanne - Général de Gaulle",
        "capacite": 25,
        "horaires": null
      }
    },
    {
      "type": "Feature",
      "geometry": {
        "type": "Point",
        "coordinates": [
          2.3995766043663,
          48.910423437526
        ]
      },
      "properties": {
        "id": "35001",
        "nom": "Jean Jaurès - Ouvrières Pivéreuses",
        "capacite": 22,
        "horaires": null
      }
    },
    {
      "type": "Feature",
      "geometry": {
        "type": "Point",
        "coordinates": [
          2.3017993569374,
          48.852060203583
        ]
      },
      "properties": {
        "id": "7111",
        "nom": "Ecole Militaire - Place Joffre",
        "capacite": 26,
        "horaires": null
      }
    },
    {
      "type": "Feature",
      "geometry": {
        "type": "Point",
        "coordinates": [
          2.2931787543289,
          48.856502977696
        ]
      },
      "properties": {
        "id": "7025",
        "nom": "Octave Gréard - Tour Eiffel",
        "capacite": 33,
        "horaires": null
      }
    },
    {
      "type": "Feature",
      "geometry": {
        "type": "Point",
        "coordinates": [
          2.2843274474144,
          48.88666162207
        ]
      },
      "properties": {
        "id": "23011",
        "nom": "Bineau - Louise Michel",
        "capacite": 26,
        "horaires": null
      }
    },
    {
      "type": "Feature",
      "geometry": {
        "type": "Point",
        "coordinates": [
          2.3763902374411,
          48.880516995482
        ]
      },
      "properties": {
        "id": "19203",
        "nom": "Pailleron - Bouret",
        "capacite": 27,
        "horaires": null
      }
    },
    {
      "type": "Feature",
      "geometry": {
        "type": "Point",
        "coordinates": [
          2.3501381278038,
          48.86181809267
        ]
      },
      "properties": {
        "id": "4104",
        "nom": "Sebastopol - Rambuteau",
        "capacite": 16,
        "horaires": null
      }
    },
    {
      "type": "Feature",
      "geometry": {
        "type": "Point",
        "coordinates": [
          2.4455443018674,
          48.905280057722
        ]
      },
      "properties": {
        "id": "30001",
        "nom": "Hôtel de Ville - Adrienne Bolland",
        "capacite": 33,
        "horaires": null
      }
    },
    {
      "type": "Feature",
      "geometry": {
        "type": "Point",
        "coordinates": [
          2.3360354080796,
          48.837525839067
        ]
      },
      "properties": {
        "id": "14111",
        "nom": "Cassini - Denfert-Rochereau",
        "capacite": 25,
        "horaires": null
      }
    },
    {
      "type": "Feature",
      "geometry": {
        "type": "Point",
        "coordinates": [
          2.301132157445,
          48.881973298352
        ]
      },
      "properties": {
        "id": "17026",
        "nom": "Jouffroy d'Abbans - Wagram",
        "capacite": 40,
        "horaires": null
      }
    },
    {
      "type": "Feature",
      "geometry": {
        "type": "Point",
        "coordinates": [
          2.3521495,
          48.8462904
        ]
      },
      "properties": {
        "id": "5022",
        "nom": "Boulangers - Cardinal Lemoine",
        "capacite": 20,
        "horaires": null
      }
    },
    {
      "type": "Feature",
      "geometry": {
        "type": "Point",
        "coordinates": [
          2.4071189761161804,
          48.764615483395254
        ]
      },
      "properties": {
        "id": "46002",
        "nom": "Rouget de Lisle",
        "capacite": 35,
        "horaires": null
      }
    },
    {
      "type": "Feature",
      "geometry": {
        "type": "Point",
        "coordinates": [
          2.3814103,
          48.9155156
        ]
      },
      "properties": {
        "id": "33017",
        "nom": "Anatole France - President Roosevelt",
        "capacite": 29,
        "horaires": null
      }
    },
    {
      "type": "Feature",
      "geometry": {
        "type": "Point",
        "coordinates": [
          2.3611663654447,
          48.814548697325
        ]
      },
      "properties": {
        "id": "42706",
        "nom": "Roger Salengro - Fontainebleau",
        "capacite": 25,
        "horaires": null
      }
    },
    {
      "type": "Feature",
      "geometry": {
        "type": "Point",
        "coordinates": [
          2.3293121159077,
          48.831632518293
        ]
      },
      "properties": {
        "id": "14008",
        "nom": "Mouton Duvernet - Général Leclerc",
        "capacite": 28,
        "horaires": null
      }
    },
    {
      "type": "Feature",
      "geometry": {
        "type": "Point",
        "coordinates": [
          2.3445946723222733,
          48.84264375274712
        ]
      },
      "properties": {
        "id": "5124",
        "nom": "Erasme - Ulm",
        "capacite": 24,
        "horaires": null
      }
    },
    {
      "type": "Feature",
      "geometry": {
        "type": "Point",
        "coordinates": [
          2.3896131366845,
          48.859358523593
        ]
      },
      "properties": {
        "id": "20131",
        "nom": "Repos - Cimetière du Père Lachaise",
        "capacite": 33,
        "horaires": null
      }
    },
    {
      "type": "Feature",
      "geometry": {
        "type": "Point",
        "coordinates": [
          2.4025777,
          48.790114
        ]
      },
      "properties": {
        "id": "44003",
        "nom": "Gabriel Péri - Danielle Casanova",
        "capacite": 20,
        "horaires": null
      }
    },
    {
      "type": "Feature",
      "geometry": {
        "type": "Point",
        "coordinates": [
          2.4186685681343083,
          48.854898095789295
        ]
      },
      "properties": {
        "id": "31003",
        "nom": "Paris - Emile Zola",
        "capacite": 30,
        "horaires": null
      }
    },
    {
      "type": "Feature",
      "geometry": {
        "type": "Point",
        "coordinates": [
          2.381464,
          48.877951
        ]
      },
      "properties": {
        "id": "19024",
        "nom": "Botzaris - Parc des Buttes Chaumont",
        "capacite": 20,
        "horaires": null
      }
    },
    {
      "type": "Feature",
      "geometry": {
        "type": "Point",
        "coordinates": [
          2.3210415244102482,
          48.82577028927573
        ]
      },
      "properties": {
        "id": "14136",
        "nom": "Auguste Cain - Jean Moulin",
        "capacite": 40,
        "horaires": null
      }
    },
    {
      "type": "Feature",
      "geometry": {
        "type": "Point",
        "coordinates": [
          2.337429821491241,
          48.87778639599673
        ]
      },
      "properties": {
        "id": "9021",
        "nom": "Saint Georges - d'Aumale",
        "capacite": 23,
        "horaires": null
      }
    },
    {
      "type": "Feature",
      "geometry": {
        "type": "Point",
        "coordinates": [
          2.2881576418876652,
          48.88873214926474
        ]
      },
      "properties": {
        "id": "23009",
        "nom": "Anatole France - Louise Michel",
        "capacite": 50,
        "horaires": null
      }
    },
    {
      "type": "Feature",
      "geometry": {
        "type": "Point",
        "coordinates": [
          2.340014585442034,
          48.89104123261663
        ]
      },
      "properties": {
        "id": "18020",
        "nom": "Francoeur - Marcadet",
        "capacite": 20,
        "horaires": null
      }
    },
    {
      "type": "Feature",
      "geometry": {
        "type": "Point",
        "coordinates": [
          2.3842214,
          48.8703459
        ]
      },
      "properties": {
        "id": "20040",
        "nom": "Parc de Belleville - Julien Lacroix",
        "capacite": 26,
        "horaires": null
      }
    },
    {
      "type": "Feature",
      "geometry": {
        "type": "Point",
        "coordinates": [
          2.408762907764669,
          48.85558642847872
        ]
      },
      "properties": {
        "id": "20118",
        "nom": "Orteaux - Mouraud",
        "capacite": 24,
        "horaires": null
      }
    },
    {
      "type": "Feature",
      "geometry": {
        "type": "Point",
        "coordinates": [
          2.450226098299,
          48.869502621564
        ]
      },
      "properties": {
        "id": "31025",
        "nom": "Paul Signac - Aristide Briand",
        "capacite": 35,
        "horaires": null
      }
    },
    {
      "type": "Feature",
      "geometry": {
        "type": "Point",
        "coordinates": [
          2.282173218142987,
          48.8569864146289
        ]
      },
      "properties": {
        "id": "16112",
        "nom": "Chernoviz - Raynouard",
        "capacite": 37,
        "horaires": null
      }
    },
    {
      "type": "Feature",
      "geometry": {
        "type": "Point",
        "coordinates": [
          2.3626908659935,
          48.80956436844049
        ]
      },
      "properties": {
        "id": "42703",
        "nom": "Fontainebleau - Edmond Michelet",
        "capacite": 45,
        "horaires": null
      }
    },
    {
      "type": "Feature",
      "geometry": {
        "type": "Point",
        "coordinates": [
          2.31951002690117,
          48.8418071798797
        ]
      },
      "properties": {
        "id": "15003",
        "nom": "Gare Montparnasse - Vaugirard",
        "capacite": 66,
        "horaires": null
      }
    },
    {
      "type": "Feature",
      "geometry": {
        "type": "Point",
        "coordinates": [
          2.427820265293122,
          48.873802681432146
        ]
      },
      "properties": {
        "id": "31704",
        "nom": "Jeanne Hornet - Girardot",
        "capacite": 29,
        "horaires": null
      }
    },
    {
      "type": "Feature",
      "geometry": {
        "type": "Point",
        "coordinates": [
          2.3678014799952507,
          48.82463749337136
        ]
      },
      "properties": {
        "id": "13114",
        "nom": "Nationale - Marcel Duchamp",
        "capacite": 23,
        "horaires": null
      }
    },
    {
      "type": "Feature",
      "geometry": {
        "type": "Point",
        "coordinates": [
          2.3113624379039,
          48.862408335967
        ]
      },
      "properties": {
        "id": "7026",
        "nom": "Place de Finlande",
        "capacite": 25,
        "horaires": null
      }
    },
    {
      "type": "Feature",
      "geometry": {
        "type": "Point",
        "coordinates": [
          2.3723404482007027,
          48.83637852318147
        ]
      },
      "properties": {
        "id": "13019",
        "nom": "Fernand Braudel - Vincent Auriol",
        "capacite": 36,
        "horaires": null
      }
    },
    {
      "type": "Feature",
      "geometry": {
        "type": "Point",
        "coordinates": [
          2.4183654785156246,
          48.82774555743318
        ]
      },
      "properties": {
        "id": "12120",
        "nom": "Lac Daumesnil - Saint-Maurice",
        "capacite": 50,
        "horaires": null
      }
    },
    {
      "type": "Feature",
      "geometry": {
        "type": "Point",
        "coordinates": [
          2.407912909984589,
          48.87266656122256
        ]
      },
      "properties": {
        "id": "20117",
        "nom": "Saint-Fargeau - Mortier",
        "capacite": 31,
        "horaires": null
      }
    },
    {
      "type": "Feature",
      "geometry": {
        "type": "Point",
        "coordinates": [
          2.2609312087297,
          48.817699773925
        ]
      },
      "properties": {
        "id": "21316",
        "nom": "Cimetière d'Issy-les-Moulineaux",
        "capacite": 24,
        "horaires": null
      }
    },
    {
      "type": "Feature",
      "geometry": {
        "type": "Point",
        "coordinates": [
          2.3521957173944,
          48.852915956209
        ]
      },
      "properties": {
        "id": "4003",
        "nom": "Quai aux Fleurs - Pont Saint-Louis",
        "capacite": 21,
        "horaires": null
      }
    },
    {
      "type": "Feature",
      "geometry": {
        "type": "Point",
        "coordinates": [
          2.38474,
          48.8429
        ]
      },
      "properties": {
        "id": "12043",
        "nom": "Daumesnil - Hébrard",
        "capacite": 40,
        "horaires": null
      }
    },
    {
      "type": "Feature",
      "geometry": {
        "type": "Point",
        "coordinates": [
          2.417981922626496,
          48.89392043619345
        ]
      },
      "properties": {
        "id": "35007",
        "nom": "Benjamin Delessert - Jean Lolive",
        "capacite": 21,
        "horaires": null
      }
    },
    {
      "type": "Feature",
      "geometry": {
        "type": "Point",
        "coordinates": [
          2.3895226791501045,
          48.790379518724265
        ]
      },
      "properties": {
        "id": "44005",
        "nom": "Place Saint-Just",
        "capacite": 22,
        "horaires": null
      }
    },
    {
      "type": "Feature",
      "geometry": {
        "type": "Point",
        "coordinates": [
          2.3109393194317818,
          48.88490187110713
        ]
      },
      "properties": {
        "id": "17119",
        "nom": "Toqueville - Cardinet",
        "capacite": 33,
        "horaires": null
      }
    },
    {
      "type": "Feature",
      "geometry": {
        "type": "Point",
        "coordinates": [
          2.4034014344215,
          48.770935866676
        ]
      },
      "properties": {
        "id": "46003",
        "nom": "Conservatoire de Musique",
        "capacite": 25,
        "horaires": null
      }
    },
    {
      "type": "Feature",
      "geometry": {
        "type": "Point",
        "coordinates": [
          2.3476678133010864,
          48.89374453351521
        ]
      },
      "properties": {
        "id": "18030",
        "nom": "Joseph Dijon - Ornano",
        "capacite": 37,
        "horaires": null
      }
    },
    {
      "type": "Feature",
      "geometry": {
        "type": "Point",
        "coordinates": [
          2.28502,
          48.846401
        ]
      },
      "properties": {
        "id": "15127",
        "nom": "Place Charles Michels",
        "capacite": 37,
        "horaires": null
      }
    },
    {
      "type": "Feature",
      "geometry": {
        "type": "Point",
        "coordinates": [
          2.3543103039265,
          48.862534941806
        ]
      },
      "properties": {
        "id": "3010",
        "nom": "Beaubourg - Michel-le-Comte",
        "capacite": 17,
        "horaires": null
      }
    },
    {
      "type": "Feature",
      "geometry": {
        "type": "Point",
        "coordinates": [
          2.3457641154527664,
          48.876620377545024
        ]
      },
      "properties": {
        "id": "9009",
        "nom": "Square Montholon",
        "capacite": 21,
        "horaires": null
      }
    },
    {
      "type": "Feature",
      "geometry": {
        "type": "Point",
        "coordinates": [
          2.3997623859813,
          48.848364667777
        ]
      },
      "properties": {
        "id": "20001",
        "nom": "Place de la Nation - Charonne",
        "capacite": 36,
        "horaires": null
      }
    },
    {
      "type": "Feature",
      "geometry": {
        "type": "Point",
        "coordinates": [
          2.257726,
          48.913179
        ]
      },
      "properties": {
        "id": "22506",
        "nom": "Gare des Vallées",
        "capacite": 20,
        "horaires": null
      }
    },
    {
      "type": "Feature",
      "geometry": {
        "type": "Point",
        "coordinates": [
          2.3343884482519,
          48.866810653323
        ]
      },
      "properties": {
        "id": "1116",
        "nom": "Ventadour - Opéra",
        "capacite": 27,
        "horaires": null
      }
    },
    {
      "type": "Feature",
      "geometry": {
        "type": "Point",
        "coordinates": [
          2.2758664190769196,
          48.85264791461651
        ]
      },
      "properties": {
        "id": "16025",
        "nom": "Jean de la Fontaine - Boulainvilliers",
        "capacite": 68,
        "horaires": null
      }
    },
    {
      "type": "Feature",
      "geometry": {
        "type": "Point",
        "coordinates": [
          2.268257387525699,
          48.84986918764119
        ]
      },
      "properties": {
        "id": "16116",
        "nom": "George Sand - Jean de La Fontaine",
        "capacite": 29,
        "horaires": null
      }
    },
    {
      "type": "Feature",
      "geometry": {
        "type": "Point",
        "coordinates": [
          2.313117867297474,
          48.84040040365445
        ]
      },
      "properties": {
        "id": "15113",
        "nom": "Arsonval - Falguière",
        "capacite": 25,
        "horaires": null
      }
    },
    {
      "type": "Feature",
      "geometry": {
        "type": "Point",
        "coordinates": [
          2.2978286134199792,
          48.91962690034779
        ]
      },
      "properties": {
        "id": "22306",
        "nom": "Place du 17 Octobre",
        "capacite": 20,
        "horaires": null
      }
    },
    {
      "type": "Feature",
      "geometry": {
        "type": "Point",
        "coordinates": [
          2.3087677359581,
          48.834097274832295
        ]
      },
      "properties": {
        "id": "15040",
        "nom": "Saint-Amand - Labrouste",
        "capacite": 36,
        "horaires": null
      }
    },
    {
      "type": "Feature",
      "geometry": {
        "type": "Point",
        "coordinates": [
          2.3560990020633,
          48.876495350882
        ]
      },
      "properties": {
        "id": "10201",
        "nom": "Magenta - Chabrol",
        "capacite": 24,
        "horaires": null
      }
    },
    {
      "type": "Feature",
      "geometry": {
        "type": "Point",
        "coordinates": [
          2.3936596512794,
          48.865217631011
        ]
      },
      "properties": {
        "id": "20010",
        "nom": "Sorbier - Gasnier-Guy",
        "capacite": 34,
        "horaires": null
      }
    },
    {
      "type": "Feature",
      "geometry": {
        "type": "Point",
        "coordinates": [
          2.3620655760169,
          48.919141953558
        ]
      },
      "properties": {
        "id": "32011",
        "nom": "Stade de France - Francis de Pressensé",
        "capacite": 44,
        "horaires": null
      }
    },
    {
      "type": "Feature",
      "geometry": {
        "type": "Point",
        "coordinates": [
          2.1947155570850896,
          48.87282451461399
        ]
      },
      "properties": {
        "id": "25007",
        "nom": "Bons Raisins - Voltaire",
        "capacite": 24,
        "horaires": null
      }
    },
    {
      "type": "Feature",
      "geometry": {
        "type": "Point",
        "coordinates": [
          2.3683342337608337,
          48.79673508795443
        ]
      },
      "properties": {
        "id": "48006",
        "nom": "Maxime Gorki - Paul Vaillant-Couturier",
        "capacite": 20,
        "horaires": null
      }
    },
    {
      "type": "Feature",
      "geometry": {
        "type": "Point",
        "coordinates": [
          2.327060401439667,
          48.81040517059777
        ]
      },
      "properties": {
        "id": "41103",
        "nom": "Place de la vache noire",
        "capacite": 25,
        "horaires": null
      }
    },
    {
      "type": "Feature",
      "geometry": {
        "type": "Point",
        "coordinates": [
          2.387217085372,
          48.854963800335
        ]
      },
      "properties": {
        "id": "11111",
        "nom": "Léon Frot - Charonne",
        "capacite": 38,
        "horaires": null
      }
    },
    {
      "type": "Feature",
      "geometry": {
        "type": "Point",
        "coordinates": [
          2.3426544293761,
          48.852886173881
        ]
      },
      "properties": {
        "id": "6020",
        "nom": "Place Saint-André des Arts",
        "capacite": 37,
        "horaires": null
      }
    },
    {
      "type": "Feature",
      "geometry": {
        "type": "Point",
        "coordinates": [
          2.354651279747486,
          48.8437035476636
        ]
      },
      "properties": {
        "id": "5031",
        "nom": "Lacépède - Linné",
        "capacite": 54,
        "horaires": null
      }
    },
    {
      "type": "Feature",
      "geometry": {
        "type": "Point",
        "coordinates": [
          2.3609894170229,
          48.839504424583
        ]
      },
      "properties": {
        "id": "13013",
        "nom": "Saint-Marcel - Hôpital",
        "capacite": 21,
        "horaires": null
      }
    },
    {
      "type": "Feature",
      "geometry": {
        "type": "Point",
        "coordinates": [
          2.2454486480600626,
          48.90970830301211
        ]
      },
      "properties": {
        "id": "22507",
        "nom": "Châteaudun - Place de la Liberté",
        "capacite": 26,
        "horaires": null
      }
    },
    {
      "type": "Feature",
      "geometry": {
        "type": "Point",
        "coordinates": [
          2.3956204,
          48.8471116
        ]
      },
      "properties": {
        "id": "12157",
        "nom": "Fabre d'Eglantine - Place de la Nation",
        "capacite": 68,
        "horaires": null
      }
    },
    {
      "type": "Feature",
      "geometry": {
        "type": "Point",
        "coordinates": [
          2.295599598447,
          48.860897797941
        ]
      },
      "properties": {
        "id": "7023",
        "nom": "Bourdonnais - Tour Eiffel",
        "capacite": 60,
        "horaires": null
      }
    },
    {
      "type": "Feature",
      "geometry": {
        "type": "Point",
        "coordinates": [
          2.3315522167367,
          48.841739161231
        ]
      },
      "properties": {
        "id": "6010",
        "nom": "Chevreuse - Montparnasse",
        "capacite": 15,
        "horaires": null
      }
    },
    {
      "type": "Feature",
      "geometry": {
        "type": "Point",
        "coordinates": [
          2.3304839059711,
          48.868266498223
        ]
      },
      "properties": {
        "id": "1022",
        "nom": "Danielle Casanova - Place Vendôme",
        "capacite": 37,
        "horaires": null
      }
    },
    {
      "type": "Feature",
      "geometry": {
        "type": "Point",
        "coordinates": [
          2.3750226,
          48.8256423
        ]
      },
      "properties": {
        "id": "13046",
        "nom": "Eugène Oudiné - Dessous Des Berges",
        "capacite": 44,
        "horaires": null
      }
    },
    {
      "type": "Feature",
      "geometry": {
        "type": "Point",
        "coordinates": [
          2.2152966,
          48.8561915
        ]
      },
      "properties": {
        "id": "22102",
        "nom": "Mont Valérien - Michel Salles",
        "capacite": 24,
        "horaires": null
      }
    },
    {
      "type": "Feature",
      "geometry": {
        "type": "Point",
        "coordinates": [
          2.3497482016682625,
          48.882555807626765
        ]
      },
      "properties": {
        "id": "9118",
        "nom": "Faubourg Poissonniere - Delta",
        "capacite": 36,
        "horaires": null
      }
    },
    {
      "type": "Feature",
      "geometry": {
        "type": "Point",
        "coordinates": [
          2.300144659954865,
          48.891834448210986
        ]
      },
      "properties": {
        "id": "17116",
        "nom": "Reims - Porte d'Asnières",
        "capacite": 26,
        "horaires": null
      }
    },
    {
      "type": "Feature",
      "geometry": {
        "type": "Point",
        "coordinates": [
          2.4273508787155156,
          48.85853523359734
        ]
      },
      "properties": {
        "id": "31013",
        "nom": "Centenaire - Sorins",
        "capacite": 45,
        "horaires": null
      }
    },
    {
      "type": "Feature",
      "geometry": {
        "type": "Point",
        "coordinates": [
          2.316861143151153,
          48.88818698581028
        ]
      },
      "properties": {
        "id": "17016",
        "nom": "Brochant - Square des Batignolles",
        "capacite": 31,
        "horaires": null
      }
    },
    {
      "type": "Feature",
      "geometry": {
        "type": "Point",
        "coordinates": [
          2.3344334212238,
          48.866483514509
        ]
      },
      "properties": {
        "id": "1016",
        "nom": "Thérèse - Opéra",
        "capacite": 25,
        "horaires": null
      }
    },
    {
      "type": "Feature",
      "geometry": {
        "type": "Point",
        "coordinates": [
          2.3024262188416,
          48.869517979344
        ]
      },
      "properties": {
        "id": "8105",
        "nom": "François 1er - Lincoln",
        "capacite": 31,
        "horaires": null
      }
    },
    {
      "type": "Feature",
      "geometry": {
        "type": "Point",
        "coordinates": [
          2.2642001509666447,
          48.888559314669514
        ]
      },
      "properties": {
        "id": "22002",
        "nom": "Argenson - Château",
        "capacite": 25,
        "horaires": null
      }
    },
    {
      "type": "Feature",
      "geometry": {
        "type": "Point",
        "coordinates": [
          2.2441747784615,
          48.833288650307
        ]
      },
      "properties": {
        "id": "21017",
        "nom": "Place Marcel Sembat",
        "capacite": 56,
        "horaires": null
      }
    },
    {
      "type": "Feature",
      "geometry": {
        "type": "Point",
        "coordinates": [
          2.4605489149689674,
          48.838751246689455
        ]
      },
      "properties": {
        "id": "12129",
        "nom": "Bois de Vincennes - Porte Jaune",
        "capacite": 35,
        "horaires": null
      }
    },
    {
      "type": "Feature",
      "geometry": {
        "type": "Point",
        "coordinates": [
          2.3044332861900334,
          48.84014918546239
        ]
      },
      "properties": {
        "id": "15019",
        "nom": "Paul Barruel - Vaugirard",
        "capacite": 39,
        "horaires": null
      }
    },
    {
      "type": "Feature",
      "geometry": {
        "type": "Point",
        "coordinates": [
          2.294867,
          48.84044
        ]
      },
      "properties": {
        "id": "15131",
        "nom": "Charles Lecocq - Lecourbe",
        "capacite": 48,
        "horaires": null
      }
    },
    {
      "type": "Feature",
      "geometry": {
        "type": "Point",
        "coordinates": [
          2.2417913004755974,
          48.82435208303827
        ]
      },
      "properties": {
        "id": "21028",
        "nom": "Pierre Lefaucheux - Traversière",
        "capacite": 35,
        "horaires": null
      }
    },
    {
      "type": "Feature",
      "geometry": {
        "type": "Point",
        "coordinates": [
          2.299347817897797,
          48.84858321339195
        ]
      },
      "properties": {
        "id": "15023",
        "nom": "La Motte-Picquet - Grenelle",
        "capacite": 34,
        "horaires": null
      }
    },
    {
      "type": "Feature",
      "geometry": {
        "type": "Point",
        "coordinates": [
          2.281863167882,
          48.849269143836
        ]
      },
      "properties": {
        "id": "15072",
        "nom": "Place Fernand Forest",
        "capacite": 33,
        "horaires": null
      }
    },
    {
      "type": "Feature",
      "geometry": {
        "type": "Point",
        "coordinates": [
          2.3511248454452,
          48.870047123655
        ]
      },
      "properties": {
        "id": "10105",
        "nom": "Mazagran - Bonne Nouvelle",
        "capacite": 25,
        "horaires": null
      }
    },
    {
      "type": "Feature",
      "geometry": {
        "type": "Point",
        "coordinates": [
          2.34395871,
          48.81031545
        ]
      },
      "properties": {
        "id": "42501",
        "nom": "Raspail - Albert Schweitzer",
        "capacite": 28,
        "horaires": null
      }
    },
    {
      "type": "Feature",
      "geometry": {
        "type": "Point",
        "coordinates": [
          2.3328901827335,
          48.886472466142
        ]
      },
      "properties": {
        "id": "18003",
        "nom": "Cimetière de Montmartre",
        "capacite": 43,
        "horaires": null
      }
    },
    {
      "type": "Feature",
      "geometry": {
        "type": "Point",
        "coordinates": [
          2.3833701,
          48.8906231
        ]
      },
      "properties": {
        "id": "19128",
        "nom": "Quai de l'Oise - Aisne",
        "capacite": 30,
        "horaires": null
      }
    },
    {
      "type": "Feature",
      "geometry": {
        "type": "Point",
        "coordinates": [
          2.470307,
          48.85385
        ]
      },
      "properties": {
        "id": "41205",
        "nom": "Maréchal Joffre - Verdun",
        "capacite": 20,
        "horaires": null
      }
    },
    {
      "type": "Feature",
      "geometry": {
        "type": "Point",
        "coordinates": [
          2.2952168,
          48.8547194
        ]
      },
      "properties": {
        "id": "15071",
        "nom": "Suffren - Champ de Mars",
        "capacite": 23,
        "horaires": null
      }
    },
    {
      "type": "Feature",
      "geometry": {
        "type": "Point",
        "coordinates": [
          2.41112578185621,
          48.86216198070008
        ]
      },
      "properties": {
        "id": "20104",
        "nom": "Louis Lumière.",
        "capacite": 22,
        "horaires": null
      }
    },
    {
      "type": "Feature",
      "geometry": {
        "type": "Point",
        "coordinates": [
          2.3599335551262,
          48.884008964514
        ]
      },
      "properties": {
        "id": "10034",
        "nom": "Louis Blanc - La Chapelle",
        "capacite": 21,
        "horaires": null
      }
    },
    {
      "type": "Feature",
      "geometry": {
        "type": "Point",
        "coordinates": [
          2.2952306270599365,
          48.921891003481115
        ]
      },
      "properties": {
        "id": "22301",
        "nom": "Chausson - Gabriel Péri",
        "capacite": 22,
        "horaires": null
      }
    },
    {
      "type": "Feature",
      "geometry": {
        "type": "Point",
        "coordinates": [
          2.298571803412886,
          48.82233088973263
        ]
      },
      "properties": {
        "id": "22401",
        "nom": "Charles de Gaulle - Plateau de Vanves",
        "capacite": 33,
        "horaires": null
      }
    },
    {
      "type": "Feature",
      "geometry": {
        "type": "Point",
        "coordinates": [
          2.4717841148376,
          48.769626617432
        ]
      },
      "properties": {
        "id": "40016",
        "nom": "Sarrazins - Saussure",
        "capacite": 22,
        "horaires": null
      }
    },
    {
      "type": "Feature",
      "geometry": {
        "type": "Point",
        "coordinates": [
          2.35908430069685,
          48.78448485079149
        ]
      },
      "properties": {
        "id": "48003",
        "nom": "Youri Gagarine - Karl Marx",
        "capacite": 22,
        "horaires": null
      }
    },
    {
      "type": "Feature",
      "geometry": {
        "type": "Point",
        "coordinates": [
          2.3963020229163,
          48.778192750803
        ]
      },
      "properties": {
        "id": "44015",
        "nom": "Rouget de L'isle - Watteau",
        "capacite": 20,
        "horaires": null
      }
    },
    {
      "type": "Feature",
      "geometry": {
        "type": "Point",
        "coordinates": [
          2.3082953318953514,
          48.874746047357135
        ]
      },
      "properties": {
        "id": "8034",
        "nom": "Berri - Haussmann",
        "capacite": 49,
        "horaires": null
      }
    },
    {
      "type": "Feature",
      "geometry": {
        "type": "Point",
        "coordinates": [
          2.336716018617153,
          48.86703740186721
        ]
      },
      "properties": {
        "id": "2111",
        "nom": "Chabanais - Petits Champs",
        "capacite": 30,
        "horaires": null
      }
    },
    {
      "type": "Feature",
      "geometry": {
        "type": "Point",
        "coordinates": [
          2.3639265082738348,
          48.871624306962985
        ]
      },
      "properties": {
        "id": "10014",
        "nom": "Marseille - Beaurepaire",
        "capacite": 55,
        "horaires": null
      }
    },
    {
      "type": "Feature",
      "geometry": {
        "type": "Point",
        "coordinates": [
          2.3158480972052,
          48.873722412917
        ]
      },
      "properties": {
        "id": "8025",
        "nom": "Miromesnil - La Boétie",
        "capacite": 35,
        "horaires": null
      }
    },
    {
      "type": "Feature",
      "geometry": {
        "type": "Point",
        "coordinates": [
          2.205548956990242,
          48.892371898250424
        ]
      },
      "properties": {
        "id": "92008",
        "nom": "Hôtel de Ville de Nanterre",
        "capacite": 38,
        "horaires": null
      }
    },
    {
      "type": "Feature",
      "geometry": {
        "type": "Point",
        "coordinates": [
          2.3293386027216907,
          48.83446472680611
        ]
      },
      "properties": {
        "id": "14036",
        "nom": "Boulard - Daguerre",
        "capacite": 45,
        "horaires": null
      }
    },
    {
      "type": "Feature",
      "geometry": {
        "type": "Point",
        "coordinates": [
          2.2790706530213356,
          48.83091743371036
        ]
      },
      "properties": {
        "id": "21313",
        "nom": "Guynemer - Séverine",
        "capacite": 26,
        "horaires": null
      }
    },
    {
      "type": "Feature",
      "geometry": {
        "type": "Point",
        "coordinates": [
          2.2695400938391685,
          48.90717373809284
        ]
      },
      "properties": {
        "id": "26007",
        "nom": "Square Gilbert Thomain",
        "capacite": 20,
        "horaires": null
      }
    },
    {
      "type": "Feature",
      "geometry": {
        "type": "Point",
        "coordinates": [
          2.2025031970585,
          48.871552174017
        ]
      },
      "properties": {
        "id": "25008",
        "nom": "Place du 8 Mai 1945",
        "capacite": 18,
        "horaires": null
      }
    },
    {
      "type": "Feature",
      "geometry": {
        "type": "Point",
        "coordinates": [
          2.239069678491417,
          48.92650488131725
        ]
      },
      "properties": {
        "id": "27002",
        "nom": "Parc Pierre Lagravère",
        "capacite": 30,
        "horaires": null
      }
    },
    {
      "type": "Feature",
      "geometry": {
        "type": "Point",
        "coordinates": [
          2.2617871686816216,
          48.86218070933143
        ]
      },
      "properties": {
        "id": "16129",
        "nom": "Ceinture du Lac Inferieure - Saint-Cloud",
        "capacite": 42,
        "horaires": null
      }
    },
    {
      "type": "Feature",
      "geometry": {
        "type": "Point",
        "coordinates": [
          2.3095492646098,
          48.881077914129
        ]
      },
      "properties": {
        "id": "17018",
        "nom": "Parc Monceau",
        "capacite": 18,
        "horaires": null
      }
    },
    {
      "type": "Feature",
      "geometry": {
        "type": "Point",
        "coordinates": [
          2.303444892168,
          48.873529900265
        ]
      },
      "properties": {
        "id": "8102",
        "nom": "Lamennais - Washington",
        "capacite": 40,
        "horaires": null
      }
    },
    {
      "type": "Feature",
      "geometry": {
        "type": "Point",
        "coordinates": [
          2.3104464635252953,
          48.83629973941847
        ]
      },
      "properties": {
        "id": "15017",
        "nom": "Place Falguière",
        "capacite": 23,
        "horaires": null
      }
    },
    {
      "type": "Feature",
      "geometry": {
        "type": "Point",
        "coordinates": [
          2.326493114233,
          48.883474535757
        ]
      },
      "properties": {
        "id": "8012",
        "nom": "Batignolles - Place de Clichy",
        "capacite": 47,
        "horaires": null
      }
    },
    {
      "type": "Feature",
      "geometry": {
        "type": "Point",
        "coordinates": [
          2.4435862898826604,
          48.86223916006812
        ]
      },
      "properties": {
        "id": "31016",
        "nom": "Lucie Aubrac - Franklin",
        "capacite": 36,
        "horaires": null
      }
    },
    {
      "type": "Feature",
      "geometry": {
        "type": "Point",
        "coordinates": [
          2.29858466343129,
          48.883769733273496
        ]
      },
      "properties": {
        "id": "17047",
        "nom": "Courcelles - Pierre Demours",
        "capacite": 26,
        "horaires": null
      }
    },
    {
      "type": "Feature",
      "geometry": {
        "type": "Point",
        "coordinates": [
          2.384599149227142,
          48.89659571178903
        ]
      },
      "properties": {
        "id": "19009",
        "nom": "Cité des Sciences et de l'Industrie",
        "capacite": 30,
        "horaires": null
      }
    },
    {
      "type": "Feature",
      "geometry": {
        "type": "Point",
        "coordinates": [
          2.3415122,
          48.8943782
        ]
      },
      "properties": {
        "id": "18029",
        "nom": "Emile Blemont - Poteau",
        "capacite": 39,
        "horaires": null
      }
    },
    {
      "type": "Feature",
      "geometry": {
        "type": "Point",
        "coordinates": [
          2.33798034198275,
          48.83586772099485
        ]
      },
      "properties": {
        "id": "14112",
        "nom": "Méchain - Faubourg Saint-Jacques",
        "capacite": 16,
        "horaires": null
      }
    },
    {
      "type": "Feature",
      "geometry": {
        "type": "Point",
        "coordinates": [
          2.2587671,
          48.8798926
        ]
      },
      "properties": {
        "id": "16122",
        "nom": "Route de la Muette - Porte de Neuilly",
        "capacite": 50,
        "horaires": null
      }
    },
    {
      "type": "Feature",
      "geometry": {
        "type": "Point",
        "coordinates": [
          2.363093,
          48.792862
        ]
      },
      "properties": {
        "id": "48005",
        "nom": "Eugène Varlin - Place de la Paix",
        "capacite": 23,
        "horaires": null
      }
    },
    {
      "type": "Feature",
      "geometry": {
        "type": "Point",
        "coordinates": [
          2.3483933508396,
          48.867141720746
        ]
      },
      "properties": {
        "id": "2004",
        "nom": "Square Pierre Lazareff",
        "capacite": 17,
        "horaires": null
      }
    },
    {
      "type": "Feature",
      "geometry": {
        "type": "Point",
        "coordinates": [
          2.4644082766769,
          48.819659244971
        ]
      },
      "properties": {
        "id": "43403",
        "nom": "Gare RER - Canadiens",
        "capacite": 40,
        "horaires": null
      }
    },
    {
      "type": "Feature",
      "geometry": {
        "type": "Point",
        "coordinates": [
          2.2829206287861,
          48.865804746474
        ]
      },
      "properties": {
        "id": "16010",
        "nom": "Belles Feuilles - Place de Mexico",
        "capacite": 23,
        "horaires": null
      }
    },
    {
      "type": "Feature",
      "geometry": {
        "type": "Point",
        "coordinates": [
          2.3720374971659,
          48.93742089281
        ]
      },
      "properties": {
        "id": "32022",
        "nom": "Henri Barbusse - Marcel Cachin",
        "capacite": 37,
        "horaires": null
      }
    },
    {
      "type": "Feature",
      "geometry": {
        "type": "Point",
        "coordinates": [
          2.3356226831675,
          48.863925158727
        ]
      },
      "properties": {
        "id": "1015",
        "nom": "Place André Malraux",
        "capacite": 37,
        "horaires": null
      }
    },
    {
      "type": "Feature",
      "geometry": {
        "type": "Point",
        "coordinates": [
          2.3418715826353,
          48.870326843044
        ]
      },
      "properties": {
        "id": "2102",
        "nom": "Saint-Marc - Feydeau",
        "capacite": 37,
        "horaires": null
      }
    },
    {
      "type": "Feature",
      "geometry": {
        "type": "Point",
        "coordinates": [
          2.5101865455508,
          48.823549261189
        ]
      },
      "properties": {
        "id": "45004",
        "nom": "République - Louis Loucheur",
        "capacite": 37,
        "horaires": null
      }
    },
    {
      "type": "Feature",
      "geometry": {
        "type": "Point",
        "coordinates": [
          2.365015,
          48.873688
        ]
      },
      "properties": {
        "id": "10202",
        "nom": "Bichat - Grange aux Belles",
        "capacite": 30,
        "horaires": null
      }
    },
    {
      "type": "Feature",
      "geometry": {
        "type": "Point",
        "coordinates": [
          2.211214,
          48.951432
        ]
      },
      "properties": {
        "id": "51008",
        "nom": "Martyrs de Châteaubriant - Jean Grandel",
        "capacite": 38,
        "horaires": null
      }
    },
    {
      "type": "Feature",
      "geometry": {
        "type": "Point",
        "coordinates": [
          2.3012199997902,
          48.850881230919
        ]
      },
      "properties": {
        "id": "15024",
        "nom": "Suffren - La Motte-Piquet",
        "capacite": 23,
        "horaires": null
      }
    },
    {
      "type": "Feature",
      "geometry": {
        "type": "Point",
        "coordinates": [
          2.380906377155,
          48.863825174341
        ]
      },
      "properties": {
        "id": "11028",
        "nom": "Guillaume Bertrand - République",
        "capacite": 38,
        "horaires": null
      }
    },
    {
      "type": "Feature",
      "geometry": {
        "type": "Point",
        "coordinates": [
          2.280027395306772,
          48.857566889784465
        ]
      },
      "properties": {
        "id": "16022",
        "nom": "Jean Bologne - Passy",
        "capacite": 19,
        "horaires": null
      }
    },
    {
      "type": "Feature",
      "geometry": {
        "type": "Point",
        "coordinates": [
          2.2187778,
          48.8702539
        ]
      },
      "properties": {
        "id": "21510",
        "nom": "Fontaine du Tertre - Calvaire",
        "capacite": 24,
        "horaires": null
      }
    },
    {
      "type": "Feature",
      "geometry": {
        "type": "Point",
        "coordinates": [
          2.2310190077797,
          48.950873482371
        ]
      },
      "properties": {
        "id": "51007",
        "nom": "Résistance - Romain Rolland",
        "capacite": 28,
        "horaires": null
      }
    },
    {
      "type": "Feature",
      "geometry": {
        "type": "Point",
        "coordinates": [
          2.4009277881277,
          48.834812629825
        ]
      },
      "properties": {
        "id": "12039",
        "nom": "Général Michel Bizot - Claude Decaen",
        "capacite": 50,
        "horaires": null
      }
    },
    {
      "type": "Feature",
      "geometry": {
        "type": "Point",
        "coordinates": [
          2.2718348,
          48.9220937
        ]
      },
      "properties": {
        "id": "22703",
        "nom": "Place Jean Mermoz",
        "capacite": 30,
        "horaires": null
      }
    },
    {
      "type": "Feature",
      "geometry": {
        "type": "Point",
        "coordinates": [
          2.192077,
          48.858446
        ]
      },
      "properties": {
        "id": "25010",
        "nom": "Maréchal Leclerc de Hauteclocque - Marché Buzenval",
        "capacite": 30,
        "horaires": null
      }
    },
    {
      "type": "Feature",
      "geometry": {
        "type": "Point",
        "coordinates": [
          2.3239533298594,
          48.915817585516
        ]
      },
      "properties": {
        "id": "34012",
        "nom": "Bateliers - Quai de Seine",
        "capacite": 26,
        "horaires": null
      }
    },
    {
      "type": "Feature",
      "geometry": {
        "type": "Point",
        "coordinates": [
          2.2955869260203,
          48.837676822332
        ]
      },
      "properties": {
        "id": "15052",
        "nom": "Convention - Vaugirard",
        "capacite": 62,
        "horaires": null
      }
    },
    {
      "type": "Feature",
      "geometry": {
        "type": "Point",
        "coordinates": [
          2.3524542754922,
          48.850458009188
        ]
      },
      "properties": {
        "id": "5107",
        "nom": "Pontoise - La Tournelle",
        "capacite": 23,
        "horaires": null
      }
    },
    {
      "type": "Feature",
      "geometry": {
        "type": "Point",
        "coordinates": [
          2.1866139007512,
          48.838513582184
        ]
      },
      "properties": {
        "id": "23801",
        "nom": "Place de la Gare",
        "capacite": 20,
        "horaires": null
      }
    },
    {
      "type": "Feature",
      "geometry": {
        "type": "Point",
        "coordinates": [
          2.3448138346607,
          48.837668272811
        ]
      },
      "properties": {
        "id": "13001",
        "nom": "Port-Royal - Hôpital du Val-de-Grâce",
        "capacite": 18,
        "horaires": null
      }
    },
    {
      "type": "Feature",
      "geometry": {
        "type": "Point",
        "coordinates": [
          2.4169882184347,
          48.745653981945
        ]
      },
      "properties": {
        "id": "43103",
        "nom": "Gare RER les Saules - Chandigarh",
        "capacite": 17,
        "horaires": null
      }
    },
    {
      "type": "Feature",
      "geometry": {
        "type": "Point",
        "coordinates": [
          2.3379541963343,
          48.904676215771
        ]
      },
      "properties": {
        "id": "34015",
        "nom": "Louis Dain - Rosiers",
        "capacite": 30,
        "horaires": null
      }
    },
    {
      "type": "Feature",
      "geometry": {
        "type": "Point",
        "coordinates": [
          2.2716060653329,
          48.84021670922
        ]
      },
      "properties": {
        "id": "15058",
        "nom": "Place du Moulin de Javel",
        "capacite": 45,
        "horaires": null
      }
    },
    {
      "type": "Feature",
      "geometry": {
        "type": "Point",
        "coordinates": [
          2.3204218259346,
          48.848563233059
        ]
      },
      "properties": {
        "id": "7002",
        "nom": "Vaneau - Sèvres",
        "capacite": 35,
        "horaires": null
      }
    },
    {
      "type": "Feature",
      "geometry": {
        "type": "Point",
        "coordinates": [
          2.4530601033354,
          48.908168131015
        ]
      },
      "properties": {
        "id": "30002",
        "nom": "Jean Rostand - Paul Vaillant Couturier",
        "capacite": 40,
        "horaires": null
      }
    },
    {
      "type": "Feature",
      "geometry": {
        "type": "Point",
        "coordinates": [
          2.3004549373748,
          48.826103771275
        ]
      },
      "properties": {
        "id": "15202",
        "nom": "Bracion - Périphérique",
        "capacite": 30,
        "horaires": null
      }
    },
    {
      "type": "Feature",
      "geometry": {
        "type": "Point",
        "coordinates": [
          2.327861653302471,
          48.82234096593411
        ]
      },
      "properties": {
        "id": "14108",
        "nom": "Le Brix et Mesmin - Jourdan",
        "capacite": 21,
        "horaires": null
      }
    },
    {
      "type": "Feature",
      "geometry": {
        "type": "Point",
        "coordinates": [
          2.32851451022192,
          48.89792240854517
        ]
      },
      "properties": {
        "id": "17044",
        "nom": "Porte de Saint-Ouen - Bessières",
        "capacite": 42,
        "horaires": null
      }
    },
    {
      "type": "Feature",
      "geometry": {
        "type": "Point",
        "coordinates": [
          2.3034455627202988,
          48.879406604954
        ]
      },
      "properties": {
        "id": "17025",
        "nom": "Chazelles - Courcelles",
        "capacite": 35,
        "horaires": null
      }
    },
    {
      "type": "Feature",
      "geometry": {
        "type": "Point",
        "coordinates": [
          2.377065159380436,
          48.82435782216384
        ]
      },
      "properties": {
        "id": "13118",
        "nom": "Regnault - Patay",
        "capacite": 63,
        "horaires": null
      }
    },
    {
      "type": "Feature",
      "geometry": {
        "type": "Point",
        "coordinates": [
          2.333393658804396,
          48.88949630486821
        ]
      },
      "properties": {
        "id": "18111",
        "nom": "Félix Ziem - Armand Gauthier",
        "capacite": 25,
        "horaires": null
      }
    },
    {
      "type": "Feature",
      "geometry": {
        "type": "Point",
        "coordinates": [
          2.3594588041306,
          48.875642647477
        ]
      },
      "properties": {
        "id": "10161",
        "nom": "Gare de l'Est - Faubourg-Saint-Martin",
        "capacite": 32,
        "horaires": null
      }
    },
    {
      "type": "Feature",
      "geometry": {
        "type": "Point",
        "coordinates": [
          2.385534569621086,
          48.8351212784276
        ]
      },
      "properties": {
        "id": "12031",
        "nom": "Gabriel Lamé",
        "capacite": 36,
        "horaires": null
      }
    },
    {
      "type": "Feature",
      "geometry": {
        "type": "Point",
        "coordinates": [
          2.3833653330802917,
          48.88917613743794
        ]
      },
      "properties": {
        "id": "19015",
        "nom": "Thionville - Ourcq",
        "capacite": 24,
        "horaires": null
      }
    },
    {
      "type": "Feature",
      "geometry": {
        "type": "Point",
        "coordinates": [
          2.281411215663,
          48.918648659556
        ]
      },
      "properties": {
        "id": "26003",
        "nom": "Argenteuil - Voltaire",
        "capacite": 16,
        "horaires": null
      }
    },
    {
      "type": "Feature",
      "geometry": {
        "type": "Point",
        "coordinates": [
          2.3826304078102,
          48.875089888322
        ]
      },
      "properties": {
        "id": "19101",
        "nom": "Square Simon Bolivar",
        "capacite": 24,
        "horaires": null
      }
    },
    {
      "type": "Feature",
      "geometry": {
        "type": "Point",
        "coordinates": [
          2.294612042605877,
          48.84993035512154
        ]
      },
      "properties": {
        "id": "15106",
        "nom": "Grenelle - Violet",
        "capacite": 35,
        "horaires": null
      }
    },
    {
      "type": "Feature",
      "geometry": {
        "type": "Point",
        "coordinates": [
          2.39090770483017,
          48.81411442356866
        ]
      },
      "properties": {
        "id": "42014",
        "nom": "Place Marcel Cachin",
        "capacite": 32,
        "horaires": null
      }
    },
    {
      "type": "Feature",
      "geometry": {
        "type": "Point",
        "coordinates": [
          2.297508493065834,
          48.844835471244416
        ]
      },
      "properties": {
        "id": "15021",
        "nom": "Joseph Liouville - Croix Nivert",
        "capacite": 64,
        "horaires": null
      }
    },
    {
      "type": "Feature",
      "geometry": {
        "type": "Point",
        "coordinates": [
          2.2964416444302,
          48.875352455985
        ]
      },
      "properties": {
        "id": "8056",
        "nom": "Beaujon - Wagram",
        "capacite": 29,
        "horaires": null
      }
    },
    {
      "type": "Feature",
      "geometry": {
        "type": "Point",
        "coordinates": [
          2.3746193200349808,
          48.886785741479684
        ]
      },
      "properties": {
        "id": "19029",
        "nom": "Seine - Flandre",
        "capacite": 19,
        "horaires": null
      }
    },
    {
      "type": "Feature",
      "geometry": {
        "type": "Point",
        "coordinates": [
          2.3692265531829,
          48.864660627935
        ]
      },
      "properties": {
        "id": "11042",
        "nom": "Grand Prieuré - Crussol",
        "capacite": 49,
        "horaires": null
      }
    },
    {
      "type": "Feature",
      "geometry": {
        "type": "Point",
        "coordinates": [
          2.3564037680625916,
          48.93009363207303
        ]
      },
      "properties": {
        "id": "32016",
        "nom": "Place de la Porte de Paris",
        "capacite": 40,
        "horaires": null
      }
    },
    {
      "type": "Feature",
      "geometry": {
        "type": "Point",
        "coordinates": [
          2.4091735482215886,
          48.89206174403158
        ]
      },
      "properties": {
        "id": "35009",
        "nom": "Jean Lolive - Parc Stalingrad",
        "capacite": 22,
        "horaires": null
      }
    },
    {
      "type": "Feature",
      "geometry": {
        "type": "Point",
        "coordinates": [
          2.441531717777252,
          48.85593932186797
        ]
      },
      "properties": {
        "id": "31012",
        "nom": "Place Carnot",
        "capacite": 25,
        "horaires": null
      }
    },
    {
      "type": "Feature",
      "geometry": {
        "type": "Point",
        "coordinates": [
          2.4253764,
          48.8949922
        ]
      },
      "properties": {
        "id": "35019",
        "nom": "Anatole France - Jean Lolive",
        "capacite": 28,
        "horaires": null
      }
    },
    {
      "type": "Feature",
      "geometry": {
        "type": "Point",
        "coordinates": [
          2.3938155401308,
          48.886506875343
        ]
      },
      "properties": {
        "id": "19019",
        "nom": "Petit - Manin",
        "capacite": 22,
        "horaires": null
      }
    },
    {
      "type": "Feature",
      "geometry": {
        "type": "Point",
        "coordinates": [
          2.3319716067039,
          48.813240124373
        ]
      },
      "properties": {
        "id": "42503",
        "nom": "Vladimir Ilitch Lénine - Andrée Chedid",
        "capacite": 31,
        "horaires": null
      }
    },
    {
      "type": "Feature",
      "geometry": {
        "type": "Point",
        "coordinates": [
          2.365213818848133,
          48.83748810318667
        ]
      },
      "properties": {
        "id": "13102",
        "nom": "Pitié-Salpêtrière",
        "capacite": 51,
        "horaires": null
      }
    },
    {
      "type": "Feature",
      "geometry": {
        "type": "Point",
        "coordinates": [
          2.283664085650799,
          48.83671783466264
        ]
      },
      "properties": {
        "id": "15055",
        "nom": "Vasco de Gama",
        "capacite": 54,
        "horaires": null
      }
    },
    {
      "type": "Feature",
      "geometry": {
        "type": "Point",
        "coordinates": [
          2.31648076325655,
          48.82890454823947
        ]
      },
      "properties": {
        "id": "14130",
        "nom": "Jonquoy - Didot",
        "capacite": 30,
        "horaires": null
      }
    },
    {
      "type": "Feature",
      "geometry": {
        "type": "Point",
        "coordinates": [
          2.3256602883339,
          48.855628721101
        ]
      },
      "properties": {
        "id": "7005",
        "nom": "Raspail - Bac",
        "capacite": 52,
        "horaires": null
      }
    },
    {
      "type": "Feature",
      "geometry": {
        "type": "Point",
        "coordinates": [
          2.343996,
          48.897488
        ]
      },
      "properties": {
        "id": "18032",
        "nom": "Porte de Clignancourt.",
        "capacite": 56,
        "horaires": null
      }
    },
    {
      "type": "Feature",
      "geometry": {
        "type": "Point",
        "coordinates": [
          2.270106375217438,
          48.890404028589806
        ]
      },
      "properties": {
        "id": "22001",
        "nom": "Château - Bineau",
        "capacite": 23,
        "horaires": null
      }
    },
    {
      "type": "Feature",
      "geometry": {
        "type": "Point",
        "coordinates": [
          2.2898658737540245,
          48.8482070397636
        ]
      },
      "properties": {
        "id": "15031",
        "nom": "Théâtre - Lourmel",
        "capacite": 53,
        "horaires": null
      }
    },
    {
      "type": "Feature",
      "geometry": {
        "type": "Point",
        "coordinates": [
          2.4224362157778994,
          48.81488859822486
        ]
      },
      "properties": {
        "id": "47005",
        "nom": "Ecole Vétérinaire",
        "capacite": 36,
        "horaires": null
      }
    },
    {
      "type": "Feature",
      "geometry": {
        "type": "Point",
        "coordinates": [
          2.3435704037547,
          48.875601632672
        ]
      },
      "properties": {
        "id": "9101",
        "nom": "Cadet - La Fayette",
        "capacite": 19,
        "horaires": null
      }
    },
    {
      "type": "Feature",
      "geometry": {
        "type": "Point",
        "coordinates": [
          2.3569472506642,
          48.853899645527
        ]
      },
      "properties": {
        "id": "4011",
        "nom": "Hôtel de Ville - Pont-Marie",
        "capacite": 36,
        "horaires": null
      }
    },
    {
      "type": "Feature",
      "geometry": {
        "type": "Point",
        "coordinates": [
          2.339947307565249,
          48.855296898603285
        ]
      },
      "properties": {
        "id": "6014",
        "nom": "Pont de Lodi - Dauphine",
        "capacite": 23,
        "horaires": null
      }
    },
    {
      "type": "Feature",
      "geometry": {
        "type": "Point",
        "coordinates": [
          2.388618104159832,
          48.83212027074841
        ]
      },
      "properties": {
        "id": "12153",
        "nom": "Terroirs de France - Lheureux",
        "capacite": 55,
        "horaires": null
      }
    },
    {
      "type": "Feature",
      "geometry": {
        "type": "Point",
        "coordinates": [
          2.2984680533409123,
          48.89679827481989
        ]
      },
      "properties": {
        "id": "23005",
        "nom": "Gare de Clichy-Levallois",
        "capacite": 26,
        "horaires": null
      }
    },
    {
      "type": "Feature",
      "geometry": {
        "type": "Point",
        "coordinates": [
          2.4199531,
          48.8179685
        ]
      },
      "properties": {
        "id": "44103",
        "nom": "Pont De Charenton",
        "capacite": 18,
        "horaires": null
      }
    },
    {
      "type": "Feature",
      "geometry": {
        "type": "Point",
        "coordinates": [
          2.3131558299065,
          48.821772279548
        ]
      },
      "properties": {
        "id": "22403",
        "nom": "Pierre Brossolette - Adolphe Pinard",
        "capacite": 24,
        "horaires": null
      }
    },
    {
      "type": "Feature",
      "geometry": {
        "type": "Point",
        "coordinates": [
          2.294846,
          48.8813072
        ]
      },
      "properties": {
        "id": "17029",
        "nom": "Pierre Demours - Laugier",
        "capacite": 37,
        "horaires": null
      }
    },
    {
      "type": "Feature",
      "geometry": {
        "type": "Point",
        "coordinates": [
          2.29627937078476,
          48.898965361341254
        ]
      },
      "properties": {
        "id": "21118",
        "nom": "Neuilly - Petit",
        "capacite": 16,
        "horaires": null
      }
    },
    {
      "type": "Feature",
      "geometry": {
        "type": "Point",
        "coordinates": [
          2.3960278,
          48.8736824
        ]
      },
      "properties": {
        "id": "20002",
        "nom": "Square de la rue Pixérécourt",
        "capacite": 45,
        "horaires": null
      }
    },
    {
      "type": "Feature",
      "geometry": {
        "type": "Point",
        "coordinates": [
          2.4091592812626543,
          48.86053161154489
        ]
      },
      "properties": {
        "id": "20122",
        "nom": "Vitruve - Davout",
        "capacite": 23,
        "horaires": null
      }
    },
    {
      "type": "Feature",
      "geometry": {
        "type": "Point",
        "coordinates": [
          2.2345951981176,
          48.905658361454
        ]
      },
      "properties": {
        "id": "22501",
        "nom": "Théâtre de La Garenne",
        "capacite": 20,
        "horaires": null
      }
    },
    {
      "type": "Feature",
      "geometry": {
        "type": "Point",
        "coordinates": [
          2.3473754525185,
          48.855258115391
        ]
      },
      "properties": {
        "id": "4002",
        "nom": "Marché aux fleurs",
        "capacite": 23,
        "horaires": null
      }
    },
    {
      "type": "Feature",
      "geometry": {
        "type": "Point",
        "coordinates": [
          2.3903981223891,
          48.858445054262
        ]
      },
      "properties": {
        "id": "11021",
        "nom": "Charonne - Pierre Bayle",
        "capacite": 23,
        "horaires": null
      }
    },
    {
      "type": "Feature",
      "geometry": {
        "type": "Point",
        "coordinates": [
          2.3935630917549138,
          48.91844023641836
        ]
      },
      "properties": {
        "id": "33015",
        "nom": "Charles Tillon - Cimetière Communal",
        "capacite": 30,
        "horaires": null
      }
    },
    {
      "type": "Feature",
      "geometry": {
        "type": "Point",
        "coordinates": [
          2.3926565092808,
          48.76529107158
        ]
      },
      "properties": {
        "id": "43201",
        "nom": "Place du Général Leclerc",
        "capacite": 22,
        "horaires": null
      }
    },
    {
      "type": "Feature",
      "geometry": {
        "type": "Point",
        "coordinates": [
          2.302115857601166,
          48.79722273833844
        ]
      },
      "properties": {
        "id": "22201",
        "nom": "Henri Ravera - Gabriel Péri",
        "capacite": 30,
        "horaires": null
      }
    },
    {
      "type": "Feature",
      "geometry": {
        "type": "Point",
        "coordinates": [
          2.398228667282044,
          48.864295696165875
        ]
      },
      "properties": {
        "id": "20024",
        "nom": "Gambetta - Père Lachaise",
        "capacite": 29,
        "horaires": null
      }
    },
    {
      "type": "Feature",
      "geometry": {
        "type": "Point",
        "coordinates": [
          2.3895753175020222,
          48.88603131999171
        ]
      },
      "properties": {
        "id": "19201",
        "nom": "Petit - Georges Thill",
        "capacite": 23,
        "horaires": null
      }
    },
    {
      "type": "Feature",
      "geometry": {
        "type": "Point",
        "coordinates": [
          2.3332237824798,
          48.883601088297
        ]
      },
      "properties": {
        "id": "18043",
        "nom": "Clichy - Place Blanche",
        "capacite": 20,
        "horaires": null
      }
    },
    {
      "type": "Feature",
      "geometry": {
        "type": "Point",
        "coordinates": [
          2.3461959511041637,
          48.86450567259199
        ]
      },
      "properties": {
        "id": "2002",
        "nom": "Etienne Marcel - Montorgueil",
        "capacite": 28,
        "horaires": null
      }
    },
    {
      "type": "Feature",
      "geometry": {
        "type": "Point",
        "coordinates": [
          2.3596492409706,
          48.86610337431
        ]
      },
      "properties": {
        "id": "3005",
        "nom": "Sainte-Elisabeth - Turbigo",
        "capacite": 33,
        "horaires": null
      }
    },
    {
      "type": "Feature",
      "geometry": {
        "type": "Point",
        "coordinates": [
          2.3647149920992,
          48.858158956779
        ]
      },
      "properties": {
        "id": "3002",
        "nom": "Saint-Gilles - Turenne",
        "capacite": 18,
        "horaires": null
      }
    },
    {
      "type": "Feature",
      "geometry": {
        "type": "Point",
        "coordinates": [
          2.3413893,
          48.8417514
        ]
      },
      "properties": {
        "id": "5004",
        "nom": "Saint-Jacques - Val de Grâce",
        "capacite": 19,
        "horaires": null
      }
    },
    {
      "type": "Feature",
      "geometry": {
        "type": "Point",
        "coordinates": [
          2.205879874527455,
          48.8218104687602
        ]
      },
      "properties": {
        "id": "23101",
        "nom": "Grande Rue - Europe",
        "capacite": 25,
        "horaires": null
      }
    },
    {
      "type": "Feature",
      "geometry": {
        "type": "Point",
        "coordinates": [
          2.297856844961643,
          48.791782341055324
        ]
      },
      "properties": {
        "id": "22601",
        "nom": "Marx Dormoy - Château Sainte-Barbe",
        "capacite": 22,
        "horaires": null
      }
    },
    {
      "type": "Feature",
      "geometry": {
        "type": "Point",
        "coordinates": [
          2.3508992046117783,
          48.93828169931872
        ]
      },
      "properties": {
        "id": "32020",
        "nom": "Jules Guesdes - Carnot",
        "capacite": 16,
        "horaires": null
      }
    },
    {
      "type": "Feature",
      "geometry": {
        "type": "Point",
        "coordinates": [
          2.366935946761926,
          48.78363092456589
        ]
      },
      "properties": {
        "id": "48012",
        "nom": "Stalingrad - Henri Luisette",
        "capacite": 26,
        "horaires": null
      }
    },
    {
      "type": "Feature",
      "geometry": {
        "type": "Point",
        "coordinates": [
          2.37121138812,
          48.832586513351
        ]
      },
      "properties": {
        "id": "13015",
        "nom": "Chevaleret - Louise Weiss",
        "capacite": 35,
        "horaires": null
      }
    },
    {
      "type": "Feature",
      "geometry": {
        "type": "Point",
        "coordinates": [
          2.400421852042113,
          48.86095933229224
        ]
      },
      "properties": {
        "id": "20020",
        "nom": "Pyrénées - Charles Renouvier",
        "capacite": 29,
        "horaires": null
      }
    },
    {
      "type": "Feature",
      "geometry": {
        "type": "Point",
        "coordinates": [
          2.3076123744249344,
          48.8176962416867
        ]
      },
      "properties": {
        "id": "22404",
        "nom": "Pierre Brossolette - 12 Février 1934",
        "capacite": 25,
        "horaires": null
      }
    },
    {
      "type": "Feature",
      "geometry": {
        "type": "Point",
        "coordinates": [
          2.3891324177384377,
          48.86615630668046
        ]
      },
      "properties": {
        "id": "20032",
        "nom": "Square des Amandiers",
        "capacite": 26,
        "horaires": null
      }
    },
    {
      "type": "Feature",
      "geometry": {
        "type": "Point",
        "coordinates": [
          2.32321947813034,
          48.89213559044868
        ]
      },
      "properties": {
        "id": "17006",
        "nom": "Guy Môquet - Compoint",
        "capacite": 36,
        "horaires": null
      }
    },
    {
      "type": "Feature",
      "geometry": {
        "type": "Point",
        "coordinates": [
          2.265253821160005,
          48.84842761367387
        ]
      },
      "properties": {
        "id": "16033",
        "nom": "Marché d'Auteuil",
        "capacite": 32,
        "horaires": null
      }
    },
    {
      "type": "Feature",
      "geometry": {
        "type": "Point",
        "coordinates": [
          2.229607694148,
          48.885816808239
        ]
      },
      "properties": {
        "id": "28002",
        "nom": "De Gaulle - Moulin",
        "capacite": 23,
        "horaires": null
      }
    },
    {
      "type": "Feature",
      "geometry": {
        "type": "Point",
        "coordinates": [
          2.3851405311143026,
          48.86798303359366
        ]
      },
      "properties": {
        "id": "20033",
        "nom": "Etienne Dolet - Place Maurice Chevalier",
        "capacite": 47,
        "horaires": null
      }
    },
    {
      "type": "Feature",
      "geometry": {
        "type": "Point",
        "coordinates": [
          2.2292812,
          48.8324305
        ]
      },
      "properties": {
        "id": "21033",
        "nom": "Sèvres - Maréchal Juin",
        "capacite": 18,
        "horaires": null
      }
    },
    {
      "type": "Feature",
      "geometry": {
        "type": "Point",
        "coordinates": [
          2.3258604481816,
          48.859726157909
        ]
      },
      "properties": {
        "id": "7007",
        "nom": "Musée d'Orsay",
        "capacite": 65,
        "horaires": null
      }
    },
    {
      "type": "Feature",
      "geometry": {
        "type": "Point",
        "coordinates": [
          2.2741496502338,
          48.925901818305
        ]
      },
      "properties": {
        "id": "26011",
        "nom": "Ménil - Argenteuil",
        "capacite": 20,
        "horaires": null
      }
    },
    {
      "type": "Feature",
      "geometry": {
        "type": "Point",
        "coordinates": [
          2.3175904558822,
          48.809223658808
        ]
      },
      "properties": {
        "id": "22208",
        "nom": "Stalingrad - Barbara",
        "capacite": 20,
        "horaires": null
      }
    },
    {
      "type": "Feature",
      "geometry": {
        "type": "Point",
        "coordinates": [
          2.3309428,
          48.8906542
        ]
      },
      "properties": {
        "id": "18018",
        "nom": "Carpeaux - Place Jacques Froment",
        "capacite": 19,
        "horaires": null
      }
    },
    {
      "type": "Feature",
      "geometry": {
        "type": "Point",
        "coordinates": [
          2.289918,
          48.86926
        ]
      },
      "properties": {
        "id": "16006",
        "nom": "Lauriston - Copernic",
        "capacite": 19,
        "horaires": null
      }
    },
    {
      "type": "Feature",
      "geometry": {
        "type": "Point",
        "coordinates": [
          2.3912295762525,
          48.926182814311
        ]
      },
      "properties": {
        "id": "31202",
        "nom": "Gabriel Péri - Jules Ferry",
        "capacite": 25,
        "horaires": null
      }
    },
    {
      "type": "Feature",
      "geometry": {
        "type": "Point",
        "coordinates": [
          2.3711421713233,
          48.832846814471
        ]
      },
      "properties": {
        "id": "13051",
        "nom": "Halle Freyssinet - Parvis Alan Turing",
        "capacite": 37,
        "horaires": null
      }
    },
    {
      "type": "Feature",
      "geometry": {
        "type": "Point",
        "coordinates": [
          2.3025986552238,
          48.835523812041
        ]
      },
      "properties": {
        "id": "15122",
        "nom": "Place Charles Vallin",
        "capacite": 26,
        "horaires": null
      }
    },
    {
      "type": "Feature",
      "geometry": {
        "type": "Point",
        "coordinates": [
          2.3469167947769,
          48.857992591527
        ]
      },
      "properties": {
        "id": "1002",
        "nom": "Victoria - Place du Chatelet",
        "capacite": 22,
        "horaires": null
      }
    },
    {
      "type": "Feature",
      "geometry": {
        "type": "Point",
        "coordinates": [
          2.3584905266762,
          48.906442763495
        ]
      },
      "properties": {
        "id": "32001",
        "nom": "Proudhon - Président Wilson",
        "capacite": 30,
        "horaires": null
      }
    },
    {
      "type": "Feature",
      "geometry": {
        "type": "Point",
        "coordinates": [
          2.3369108140468597,
          48.833206330538864
        ]
      },
      "properties": {
        "id": "14006",
        "nom": "Saint-Jacques - Tombe Issoire",
        "capacite": 23,
        "horaires": null
      }
    },
    {
      "type": "Feature",
      "geometry": {
        "type": "Point",
        "coordinates": [
          2.2946908324956894,
          48.90390619651018
        ]
      },
      "properties": {
        "id": "21114",
        "nom": "Gustave Eiffel - Parc des Impressionnistes",
        "capacite": 30,
        "horaires": null
      }
    },
    {
      "type": "Feature",
      "geometry": {
        "type": "Point",
        "coordinates": [
          2.370478,
          48.875022
        ]
      },
      "properties": {
        "id": "10164",
        "nom": "Claude Vellefaux - Sambre et Meuse",
        "capacite": 34,
        "horaires": null
      }
    },
    {
      "type": "Feature",
      "geometry": {
        "type": "Point",
        "coordinates": [
          2.411030612453627,
          48.86803439043193
        ]
      },
      "properties": {
        "id": "20103",
        "nom": "Le Vau - Maurice Bertaux",
        "capacite": 25,
        "horaires": null
      }
    },
    {
      "type": "Feature",
      "geometry": {
        "type": "Point",
        "coordinates": [
          2.275240458548069,
          48.856399483950504
        ]
      },
      "properties": {
        "id": "16031",
        "nom": "Vignes - Boulainvilliers",
        "capacite": 21,
        "horaires": null
      }
    },
    {
      "type": "Feature",
      "geometry": {
        "type": "Point",
        "coordinates": [
          2.3518594354391094,
          48.78695280952244
        ]
      },
      "properties": {
        "id": "48009",
        "nom": "République - Auguste Perret",
        "capacite": 30,
        "horaires": null
      }
    },
    {
      "type": "Feature",
      "geometry": {
        "type": "Point",
        "coordinates": [
          2.3244281485677,
          48.842885590081
        ]
      },
      "properties": {
        "id": "14127",
        "nom": "Odessa - Départ",
        "capacite": 39,
        "horaires": null
      }
    },
    {
      "type": "Feature",
      "geometry": {
        "type": "Point",
        "coordinates": [
          2.4562818557024,
          48.8762638192
        ]
      },
      "properties": {
        "id": "31026",
        "nom": "Demi-Lune - Aristide Briand",
        "capacite": 20,
        "horaires": null
      }
    },
    {
      "type": "Feature",
      "geometry": {
        "type": "Point",
        "coordinates": [
          2.3809862136841,
          48.868831082877
        ]
      },
      "properties": {
        "id": "20039",
        "nom": "Belleville - Couronnes",
        "capacite": 50,
        "horaires": null
      }
    },
    {
      "type": "Feature",
      "geometry": {
        "type": "Point",
        "coordinates": [
          2.3537524044513702,
          48.840658921385234
        ]
      },
      "properties": {
        "id": "5034",
        "nom": "Censier - Santeuil",
        "capacite": 69,
        "horaires": null
      }
    },
    {
      "type": "Feature",
      "geometry": {
        "type": "Point",
        "coordinates": [
          2.287235018058929,
          48.82537611802588
        ]
      },
      "properties": {
        "id": "21708",
        "nom": "Marcel Yol - Jullien",
        "capacite": 30,
        "horaires": null
      }
    },
    {
      "type": "Feature",
      "geometry": {
        "type": "Point",
        "coordinates": [
          2.40568600595,
          48.861451061938
        ]
      },
      "properties": {
        "id": "20108",
        "nom": "Jardin de l'Hospice Debrousse",
        "capacite": 23,
        "horaires": null
      }
    },
    {
      "type": "Feature",
      "geometry": {
        "type": "Point",
        "coordinates": [
          2.323841750621796,
          48.81718759671675
        ]
      },
      "properties": {
        "id": "21219",
        "nom": "Amaury Duval - Gabriel Péri",
        "capacite": 36,
        "horaires": null
      }
    },
    {
      "type": "Feature",
      "geometry": {
        "type": "Point",
        "coordinates": [
          2.3945679143071175,
          48.82529858840266
        ]
      },
      "properties": {
        "id": "42209",
        "nom": "Place de l'Europe - Quai de Bercy",
        "capacite": 17,
        "horaires": null
      }
    },
    {
      "type": "Feature",
      "geometry": {
        "type": "Point",
        "coordinates": [
          2.369126,
          48.829575
        ]
      },
      "properties": {
        "id": "13044",
        "nom": "Place Jeanne d'Arc",
        "capacite": 36,
        "horaires": null
      }
    },
    {
      "type": "Feature",
      "geometry": {
        "type": "Point",
        "coordinates": [
          2.2666339203715324,
          48.894036161302104
        ]
      },
      "properties": {
        "id": "22015",
        "nom": "Île de la Jatte",
        "capacite": 23,
        "horaires": null
      }
    },
    {
      "type": "Feature",
      "geometry": {
        "type": "Point",
        "coordinates": [
          2.443241664773,
          48.809972406542
        ]
      },
      "properties": {
        "id": "47009",
        "nom": "Charentonneau - Maison Alfort",
        "capacite": 28,
        "horaires": null
      }
    },
    {
      "type": "Feature",
      "geometry": {
        "type": "Point",
        "coordinates": [
          2.3524305148385,
          48.880955741648
        ]
      },
      "properties": {
        "id": "10033",
        "nom": "Gare du Nord - Saint-Vincent de Paul",
        "capacite": 24,
        "horaires": null
      }
    },
    {
      "type": "Feature",
      "geometry": {
        "type": "Point",
        "coordinates": [
          2.274354539176829,
          48.86877849178477
        ]
      },
      "properties": {
        "id": "16012",
        "nom": "Flandrin - Longchamp",
        "capacite": 42,
        "horaires": null
      }
    },
    {
      "type": "Feature",
      "geometry": {
        "type": "Point",
        "coordinates": [
          2.4846760556101803,
          48.820029010376956
        ]
      },
      "properties": {
        "id": "45002",
        "nom": "Roger Salengro - Général de Gaulle",
        "capacite": 27,
        "horaires": null
      }
    },
    {
      "type": "Feature",
      "geometry": {
        "type": "Point",
        "coordinates": [
          2.3397007964124366,
          48.819897343156676
        ]
      },
      "properties": {
        "id": "14135",
        "nom": "Jourdan - Cité Universitaire",
        "capacite": 39,
        "horaires": null
      }
    },